time(sec),engine_speed(rpm),actual_torque(%),fuel_rate(LPH),tilt_pitch(deg),tilt_roll(deg),tilt_yaw(deg),arm_tilit(deg),arm_roll(deg),boom_tilit(deg),boom_roll(deg),pressure(bar),flow_rate(LPM)
78.483,796.500,13.000,43.050,77.891,-0.648,18.484,-86.391,1.435,48.360,0.758,-0.063,0.264
78.534,796.500,13.000,43.050,77.898,-0.656,18.485,-86.547,1.410,48.395,0.803,-0.043,0.284
78.583,801.000,12.000,44.050,77.898,-0.656,18.485,-86.600,1.439,48.360,0.816,-0.063,0.215
78.634,801.000,12.000,44.050,77.886,-0.654,18.472,-86.756,1.435,48.366,0.807,-0.043,0.244
78.683,800.000,12.000,44.050,77.886,-0.654,18.483,-87.226,1.439,48.390,0.807,-0.043,0.264
78.733,802.000,11.000,44.050,77.886,-0.654,18.483,-87.070,1.414,48.372,0.816,-0.023,0.441
78.784,802.000,11.000,44.050,77.886,-0.654,18.478,-87.174,1.447,48.378,0.811,-0.023,0.235
78.834,800.000,12.000,45.050,77.882,-0.649,18.478,-87.226,1.480,48.354,0.816,-0.004,0.235
78.884,800.500,12.000,45.050,77.882,-0.649,18.478,-87.539,1.398,48.330,0.779,-0.043,0.264
78.933,797.000,13.000,44.050,77.882,-0.649,18.484,-87.017,1.386,48.336,0.779,-0.043,0.244
78.983,797.000,13.000,44.050,77.882,-0.649,18.495,-86.861,1.435,48.330,0.828,-0.063,0.254
79.034,802.000,11.000,43.050,77.879,-0.654,18.479,-87.278,1.443,48.342,0.820,-0.023,0.254
79.083,802.000,11.000,43.050,77.890,-0.644,18.480,-87.331,1.455,48.330,0.803,-0.083,0.244
79.133,800.500,12.000,44.050,77.890,-0.644,18.486,-86.808,1.480,48.324,0.725,-0.063,0.451
79.183,800.500,12.000,44.050,77.886,-0.643,18.479,-86.495,1.435,48.336,0.779,-0.122,0.225
79.233,797.500,13.000,44.050,77.879,-0.646,18.483,-86.600,1.431,48.336,0.779,-0.023,0.244
79.283,797.500,13.000,44.050,77.879,-0.646,18.483,-86.443,1.431,48.318,0.779,-0.023,0.244
79.333,800.500,12.000,44.050,77.879,-0.646,18.507,-86.547,1.423,48.324,0.758,-0.004,0.244
79.383,801.500,11.000,43.050,77.879,-0.646,18.481,-86.443,1.427,48.348,0.758,-0.043,0.254
79.434,797.000,13.000,43.050,77.889,-0.653,18.485,-86.547,1.402,48.342,0.795,-0.043,0.422
79.484,799.500,12.000,45.050,77.890,-0.650,18.482,-86.600,1.492,48.312,0.811,-0.043,0.235
79.533,802.000,11.000,45.050,77.890,-0.650,18.482,-86.704,1.431,48.342,0.758,-0.043,0.254
79.583,798.000,13.000,44.050,77.886,-0.652,18.482,-87.070,1.464,48.366,0.783,-0.043,0.215
79.633,801.500,11.000,44.050,77.886,-0.652,18.483,-87.226,1.468,48.372,0.758,-0.043,0.195
79.684,797.000,13.000,44.050,77.890,-0.653,18.489,-87.017,1.447,48.360,0.746,-0.063,0.244
79.733,800.000,12.000,45.050,77.890,-0.653,18.479,-87.592,1.464,48.384,0.738,-0.023,0.254
79.783,802.000,11.000,45.050,77.893,-0.659,18.486,-87.226,1.418,48.384,0.770,-0.043,0.284
79.833,797.500,13.000,44.050,77.893,-0.659,18.489,-86.808,1.427,48.372,0.791,-0.083,0.235
79.883,800.500,12.000,44.050,77.893,-0.659,18.483,-86.704,1.406,48.378,0.857,-0.063,0.244
79.933,801.500,11.000,43.050,77.901,-0.662,18.482,-86.861,1.427,48.366,0.840,-0.063,0.274
79.984,801.500,11.000,43.050,77.901,-0.662,18.479,-87.278,1.394,48.366,0.811,-0.043,0.244
80.033,800.500,12.000,44.050,77.887,-0.652,18.485,-87.174,1.431,48.360,0.791,-0.063,0.294
80.083,803.500,11.000,44.050,77.887,-0.652,18.485,-87.226,1.418,48.384,0.787,-0.063,0.235
80.133,797.500,13.000,43.050,77.894,-0.649,18.471,-86.808,1.447,48.372,0.795,-0.023,0.284
80.183,799.000,12.000,43.050,77.894,-0.649,18.471,-86.704,1.431,48.366,0.791,-0.023,0.313
80.233,799.000,12.000,43.050,77.894,-0.649,18.481,-87.070,1.447,48.330,0.762,-0.023,0.205
80.283,801.500,11.000,44.050,77.894,-0.649,18.481,-86.704,1.435,48.342,0.754,-0.043,0.264
80.333,799.500,12.000,44.050,77.894,-0.647,18.477,-86.547,1.414,48.324,0.787,-0.063,0.244
80.383,799.500,12.000,44.050,77.899,-0.640,18.483,-86.443,1.480,48.265,0.791,-0.043,0.284
80.433,797.500,13.000,44.050,77.901,-0.643,18.485,-86.547,1.468,48.289,0.811,-0.063,0.264
80.483,799.000,13.000,44.050,77.901,-0.643,18.485,-86.495,1.435,48.295,0.770,-0.043,0.323
80.533,802.000,11.000,44.050,77.901,-0.643,18.482,-86.600,1.464,48.289,0.775,-0.063,0.284
80.583,796.500,13.000,44.050,77.901,-0.643,18.493,-86.600,1.414,48.295,0.770,-0.063,0.264
80.633,799.000,13.000,45.050,77.896,-0.638,18.487,-86.391,1.431,48.342,0.799,-0.063,0.254
80.683,801.000,12.000,45.050,77.896,-0.638,18.491,-86.443,1.427,48.330,0.820,-0.063,0.225
80.734,797.000,13.000,45.050,77.901,-0.649,18.479,-86.808,1.423,48.336,0.799,-0.004,0.284
80.783,800.000,12.000,45.050,77.901,-0.652,18.476,-86.600,1.431,48.336,0.811,-0.043,0.225
80.834,802.000,12.000,44.050,77.901,-0.652,18.489,-87.331,1.431,48.342,0.803,-0.023,0.235
80.883,798.500,13.000,44.050,77.889,-0.653,18.487,-86.913,1.406,48.307,0.844,-0.043,0.254
80.933,800.500,12.000,44.050,77.889,-0.653,18.477,-86.652,1.431,48.295,0.816,-0.004,0.244
80.983,801.500,12.000,44.050,77.889,-0.653,18.477,-86.600,1.492,48.295,0.754,-0.063,0.244
81.033,798.000,13.000,44.050,77.885,-0.652,18.482,-86.547,1.431,48.277,0.787,-0.063,0.254
81.083,799.500,13.000,44.050,77.885,-0.652,18.482,-86.652,1.402,48.295,0.783,-0.063,0.215
81.133,801.000,12.000,44.050,77.890,-0.654,18.479,-86.286,1.439,48.336,0.758,-0.023,0.264
81.184,797.500,13.000,44.050,77.891,-0.656,18.500,-86.547,1.459,48.336,0.762,-0.023,0.264
81.234,800.000,12.000,45.050,77.899,-0.658,18.483,-87.070,1.468,48.336,0.770,-0.043,0.244
81.283,801.500,12.000,45.050,77.899,-0.658,18.483,-86.965,1.406,48.283,0.770,-0.043,0.254
81.333,797.500,13.000,44.050,77.899,-0.658,18.481,-86.756,1.431,48.265,0.783,-0.063,0.264
81.383,799.500,13.000,44.050,77.900,-0.641,18.480,-87.331,1.402,48.330,0.791,-0.043,0.264
81.434,802.000,12.000,44.050,77.897,-0.642,18.480,-87.070,1.431,48.324,0.762,-0.043,0.244
81.483,798.500,13.000,44.050,77.897,-0.642,18.480,-86.704,1.431,48.318,0.750,-0.043,0.274
81.534,798.500,13.000,44.050,77.897,-0.642,18.483,-86.808,1.410,48.312,0.754,-0.004,0.274
81.583,801.500,12.000,45.050,77.894,-0.638,18.481,-86.861,1.427,48.277,0.840,-0.023,0.235
81.634,798.000,13.000,44.050,77.897,-0.639,18.486,-86.808,1.439,48.295,0.836,-0.023,0.274
81.683,800.000,12.000,44.050,77.897,-0.639,18.531,-86.913,1.459,48.295,0.803,-0.063,0.215
81.733,800.000,12.000,44.050,77.898,-0.646,18.482,-86.756,1.459,48.277,0.816,-0.043,0.284
81.783,801.500,12.000,44.050,77.898,-0.646,18.482,-86.861,1.459,48.265,0.811,-0.004,0.284
81.833,800.000,12.000,45.050,77.898,-0.646,18.481,-86.704,1.427,48.301,0.803,-0.043,0.225
81.883,802.000,12.000,45.050,77.898,-0.646,18.481,-87.017,1.443,48.289,0.820,-0.102,0.254
81.933,798.500,13.000,44.050,77.898,-0.644,18.480,-87.800,1.439,48.318,0.807,-0.023,0.215
81.984,798.500,13.000,44.050,77.898,-0.644,18.480,-86.808,1.431,48.324,0.816,-0.023,0.028
82.033,799.500,13.000,44.050,77.891,-0.646,18.482,-86.600,1.435,48.330,0.820,-0.063,0.294
82.083,798.500,13.000,44.050,77.891,-0.646,18.482,-87.331,1.439,48.330,0.779,-0.043,0.244
82.133,800.500,12.000,44.050,77.891,-0.646,18.482,-87.017,1.459,48.324,0.770,-0.043,0.205
82.183,802.000,12.000,44.050,77.897,-0.649,18.485,-87.122,1.464,48.336,0.775,-0.043,0.284
82.234,798.500,13.000,44.050,77.895,-0.654,18.485,-86.756,1.431,48.324,0.783,-0.063,0.264
82.283,800.500,12.000,44.050,77.895,-0.654,18.755,-86.600,1.435,48.342,0.787,-0.043,0.264
82.334,800.500,12.000,44.050,77.893,-0.653,18.757,-86.600,1.431,48.330,0.766,-0.023,0.274
82.383,802.000,11.000,44.050,77.893,-0.653,18.757,-86.704,1.439,48.324,0.750,0.036,0.284
82.433,799.500,12.000,44.050,77.893,-0.653,18.760,-86.652,1.418,48.336,0.758,-0.023,0.254
82.483,801.000,12.000,44.050,77.893,-0.653,18.760,-86.547,1.418,48.336,0.816,-0.063,0.294
82.533,797.500,13.000,44.050,77.901,-0.654,18.756,-86.547,1.423,48.336,0.811,-0.043,0.235
82.584,801.000,12.000,44.050,77.902,-0.656,18.754,-86.391,1.480,48.330,0.816,-0.043,0.264
82.633,802.000,11.000,43.050,77.896,-0.645,18.746,-86.547,1.439,48.342,0.816,-0.023,0.205
82.683,798.000,13.000,43.050,77.896,-0.645,18.746,-86.495,1.427,48.301,0.807,-0.122,0.175
82.733,800.500,12.000,44.050,77.896,-0.645,18.752,-86.547,1.410,48.289,0.820,-0.063,0.254
82.783,802.000,11.000,44.050,77.891,-0.637,18.757,-86.495,1.414,48.330,0.811,-0.043,0.264
82.833,798.000,13.000,43.050,77.896,-0.644,18.755,-86.443,1.443,48.336,0.816,-0.023,0.294
82.883,800.500,12.000,43.050,77.896,-0.644,18.755,-86.808,1.472,48.336,0.803,-0.043,0.225
82.933,802.000,11.000,43.050,77.898,-0.644,18.756,-86.234,1.455,48.312,0.828,-0.102,0.225
82.983,797.500,13.000,43.050,77.898,-0.644,18.753,-86.443,1.386,48.330,0.861,-0.023,0.264
83.033,800.000,12.000,44.050,77.898,-0.644,18.758,-86.861,1.451,48.289,0.828,-0.023,0.274
83.084,802.000,11.000,44.050,77.898,-0.650,18.760,-86.704,1.451,48.336,0.807,-0.102,0.244
83.134,797.000,13.000,43.050,77.891,-0.644,18.759,-86.495,1.435,48.336,0.844,-0.102,0.294
83.184,799.000,12.000,43.050,77.891,-0.644,18.759,-86.391,1.402,48.342,0.852,-0.004,0.244
83.233,801.000,12.000,44.050,77.890,-0.636,18.755,-86.495,1.427,48.312,0.844,-0.063,0.274
83.283,798.500,13.000,44.050,77.890,-0.636,18.752,-86.495,1.447,48.336,0.816,-0.023,0.244
83.334,800.000,12.000,44.050,77.892,-0.637,18.754,-87.122,1.459,48.342,0.840,-0.043,0.254
83.383,801.500,12.000,44.050,77.892,-0.637,18.760,-86.913,1.455,48.336,0.844,0.016,0.215
83.433,798.000,13.000,44.050,77.892,-0.637,18.760,-87.278,1.459,48.324,0.824,-0.063,0.294
83.483,800.500,12.000,44.050,77.892,-0.637,18.763,-87.070,1.459,48.348,1.058,-0.043,0.225
83.534,802.500,11.000,43.050,77.906,-0.639,18.760,-87.226,1.468,48.366,0.803,-0.043,0.244
83.583,798.500,12.000,43.050,77.910,-0.643,18.742,-86.704,1.451,48.348,0.811,-0.063,0.264
83.634,800.500,12.000,44.050,77.910,-0.643,18.765,-86.495,1.406,48.330,0.811,-0.043,0.471
83.683,802.000,11.000,44.050,77.898,-0.654,18.760,-86.286,1.476,48.354,0.816,-0.083,0.274
83.734,798.500,12.000,43.050,77.904,-0.667,18.756,-87.122,1.480,48.336,0.811,-0.023,0.195
83.783,800.000,12.000,43.050,77.904,-0.667,18.756,-86.808,1.464,48.324,0.803,-0.063,0.244
83.834,801.500,11.000,43.050,77.907,-0.677,18.758,-86.078,1.447,48.342,0.848,-0.023,0.235
83.883,798.000,12.000,43.050,77.907,-0.677,18.758,-86.547,1.443,48.348,0.852,-0.023,0.235
83.934,800.500,12.000,44.050,77.907,-0.677,18.759,-86.965,1.406,48.324,0.824,-0.063,0.254
83.983,800.500,12.000,44.050,77.904,-0.670,18.763,-86.339,1.427,48.318,0.840,0.036,0.284
84.033,797.000,13.000,43.050,77.896,-0.657,18.757,-86.808,1.439,48.348,0.836,-0.043,0.244
84.083,799.500,12.000,43.050,77.896,-0.657,18.776,-86.391,1.435,48.366,0.844,-0.043,0.097
84.134,801.000,11.000,43.050,77.895,-0.656,18.742,-86.704,1.435,48.360,0.840,-0.043,0.077
84.184,801.000,11.000,43.050,77.895,-0.656,18.742,-86.704,1.418,48.378,0.811,-0.023,0.235
84.233,800.000,12.000,44.050,77.895,-0.656,18.757,-86.756,1.435,48.384,0.848,-0.083,0.264
84.283,801.500,11.000,44.050,77.898,-0.654,18.742,-86.756,1.402,48.348,0.852,-0.043,0.244
84.333,798.000,13.000,44.050,77.898,-0.654,18.759,-86.652,1.435,48.307,0.840,-0.063,0.264
84.383,800.000,12.000,44.050,77.898,-0.654,18.759,-86.808,1.451,48.336,0.820,-0.023,0.225
84.433,801.000,12.000,44.050,77.901,-0.652,18.758,-86.808,1.468,48.342,0.783,-0.023,0.264
84.484,798.000,13.000,44.050,77.901,-0.652,18.753,-86.652,1.459,48.283,0.754,-0.043,0.254
84.534,800.000,12.000,44.050,77.892,-0.658,18.762,-86.443,1.447,48.330,0.779,-0.043,0.215
84.584,801.500,11.000,44.050,77.892,-0.658,18.762,-86.078,1.402,48.342,0.775,-0.043,0.274
84.633,798.500,12.000,43.050,77.887,-0.654,18.758,-86.234,1.431,48.336,0.803,-0.023,0.303
84.684,800.000,12.000,43.050,77.887,-0.654,18.758,-86.025,1.480,48.307,0.820,-0.023,0.205
84.733,801.000,12.000,43.050,77.888,-0.649,18.757,-86.391,1.455,48.324,0.852,-0.043,0.264
84.783,797.000,13.000,43.050,77.888,-0.649,18.759,-87.070,1.455,48.348,0.840,0.036,0.215
84.833,800.500,12.000,44.050,77.888,-0.649,18.758,-86.808,1.472,48.330,0.828,-0.063,0.254
84.883,800.500,12.000,44.050,77.888,-0.649,18.758,-86.600,1.455,48.318,0.803,0.075,0.284
84.934,798.000,13.000,44.050,77.892,-0.652,19.031,-86.756,1.459,48.336,0.783,-0.023,0.225
84.983,800.000,12.000,44.050,77.892,-0.652,19.031,-86.600,1.414,48.348,0.762,-0.043,0.254
85.033,801.500,11.000,43.050,77.892,-0.652,19.028,-86.443,1.427,48.312,0.783,-0.063,0.264
85.083,797.500,13.000,43.050,77.892,-0.652,19.031,-86.808,1.435,48.312,0.783,-0.063,0.294
85.133,799.500,12.000,44.050,77.883,-0.648,19.046,-86.808,1.435,48.348,0.791,0.055,0.225
85.184,799.500,12.000,44.050,77.883,-0.648,19.029,-86.913,1.472,48.324,0.787,-0.023,0.254
85.233,798.000,13.000,43.050,77.893,-0.644,19.043,-86.704,1.439,48.336,0.811,-0.043,0.254
85.283,800.000,12.000,43.050,77.893,-0.644,19.043,-86.443,1.410,48.348,0.807,0.016,0.264
85.333,800.000,12.000,43.050,77.898,-0.643,19.030,-86.495,1.418,48.324,0.803,-0.004,0.028
85.384,798.000,13.000,42.050,77.898,-0.643,19.030,-86.547,1.439,48.330,0.766,-0.043,0.215
85.433,800.000,12.000,44.050,77.888,-0.645,19.026,-86.339,1.414,48.342,0.783,-0.043,0.225
85.483,801.500,11.000,44.050,77.888,-0.645,19.026,-86.600,1.414,48.348,0.779,-0.043,0.254
85.533,801.500,11.000,44.050,77.900,-0.633,19.046,-86.808,1.402,48.318,0.775,-0.023,0.274
85.583,800.000,12.000,43.050,77.900,-0.633,19.046,-86.339,1.418,48.307,0.824,-0.043,0.028
85.634,802.000,11.000,42.050,77.900,-0.633,19.038,-86.391,1.447,48.336,0.848,-0.043,0.274
85.683,797.500,13.000,42.050,77.908,-0.633,19.039,-86.652,1.423,48.330,0.848,-0.043,0.244
85.734,800.500,12.000,44.050,77.908,-0.633,19.029,-86.495,1.431,48.312,0.844,-0.043,0.294
85.783,802.500,11.000,44.050,77.904,-0.639,19.031,-86.339,1.414,48.318,0.803,-0.023,0.264
85.833,802.500,11.000,44.050,77.904,-0.639,19.034,-86.547,1.398,48.342,0.811,-0.023,0.284
85.883,800.000,12.000,42.050,77.892,-0.639,19.031,-86.913,1.394,48.336,0.795,-0.063,0.284
85.934,802.500,11.000,42.050,77.897,-0.642,19.030,-86.391,1.402,48.336,0.820,-0.023,0.166
85.983,798.000,12.000,42.050,77.897,-0.642,19.030,-86.495,1.398,48.336,0.783,-0.083,0.254
86.033,800.500,11.000,43.050,77.897,-0.642,19.019,-86.652,1.406,48.336,0.816,-0.023,0.274
86.083,802.000,11.000,43.050,77.897,-0.642,19.019,-86.547,1.427,48.324,0.840,-0.004,0.274
86.133,802.000,11.000,43.050,77.901,-0.653,19.027,-86.808,1.427,48.324,0.828,-0.043,0.303
86.183,799.500,12.000,43.050,77.901,-0.653,19.028,-86.339,1.427,48.372,0.828,-0.023,0.451
86.233,801.500,11.000,42.050,77.906,-0.648,19.031,-86.808,1.427,48.390,0.783,-0.102,0.500
86.284,801.500,11.000,42.050,77.906,-0.648,19.031,-86.600,1.402,48.342,0.762,-0.043,0.195
86.334,797.500,12.000,42.050,77.913,-0.640,19.028,-86.913,1.431,48.318,0.811,-0.004,0.303
86.383,799.000,12.000,44.050,77.901,-0.637,19.030,-86.913,1.418,48.342,0.820,-0.043,0.235
86.433,801.500,11.000,44.050,77.901,-0.637,19.032,-86.756,1.464,48.348,0.811,-0.023,0.303
86.484,799.500,12.000,43.050,77.901,-0.637,19.036,-86.495,1.439,48.336,0.828,-0.004,0.235
86.534,800.500,12.000,43.050,77.894,-0.641,19.049,-86.443,1.427,48.330,0.816,-0.023,0.254
86.583,796.500,13.000,43.050,77.894,-0.641,19.049,-86.652,1.427,48.330,0.807,-0.043,0.294
86.633,796.500,13.000,43.050,77.894,-0.641,19.028,-86.808,1.410,48.330,0.811,-0.063,0.264
86.683,799.500,12.000,44.050,77.894,-0.641,19.028,-86.391,1.439,48.324,0.824,-0.004,0.166
86.733,796.500,13.000,44.050,77.896,-0.646,19.030,-87.017,1.431,48.318,0.807,-0.043,0.254
86.784,796.500,13.000,44.050,77.886,-0.651,19.035,-86.756,1.431,48.301,0.820,-0.043,0.244
86.833,801.000,12.000,44.050,77.886,-0.651,19.032,-86.704,1.439,48.277,0.811,-0.023,0.264
86.884,797.500,13.000,44.050,77.886,-0.651,19.032,-86.756,1.472,48.271,0.766,-0.023,0.294
86.933,800.000,12.000,45.050,77.883,-0.652,19.018,-86.600,1.468,48.324,0.807,-0.023,0.235
86.983,800.000,12.000,45.050,77.897,-0.653,19.029,-86.495,1.468,48.336,0.820,-0.043,0.264
87.033,797.500,13.000,45.050,77.897,-0.653,19.013,-86.547,1.431,48.330,0.820,-0.043,0.205
87.083,800.500,12.000,45.050,77.897,-0.653,19.013,-87.278,1.459,48.289,0.787,-0.023,0.047
87.133,802.000,12.000,43.050,77.891,-0.645,19.031,-87.070,1.382,48.301,0.754,-0.063,0.067
87.183,797.500,13.000,43.050,77.891,-0.645,19.031,-87.017,1.431,48.295,0.779,-0.043,0.116
87.233,800.500,12.000,44.050,77.901,-0.636,19.029,-86.495,1.459,48.289,0.762,-0.023,0.244
87.283,801.500,12.000,44.050,77.901,-0.636,19.035,-86.756,1.464,48.283,0.758,-0.023,0.254
87.333,798.500,13.000,44.050,77.901,-0.636,19.035,-86.495,1.447,48.289,0.754,-0.063,0.038
87.383,801.000,12.000,44.050,77.900,-0.640,19.020,-86.391,1.455,48.277,0.770,-0.043,0.244
87.433,801.000,12.000,44.050,77.900,-0.640,19.058,-86.182,1.443,48.283,0.861,-0.043,0.254
87.483,797.500,13.000,44.050,77.890,-0.645,19.033,-86.808,1.431,48.289,0.807,-0.023,0.244
87.533,800.500,12.000,44.050,77.890,-0.645,19.033,-86.965,1.455,48.295,0.746,-0.063,0.481
87.583,801.500,12.000,44.050,77.886,-0.645,19.032,-86.130,1.451,48.312,0.762,-0.043,0.175
87.634,801.500,12.000,44.050,77.889,-0.642,19.025,-86.600,1.435,48.354,0.762,-0.063,0.146
87.683,798.000,13.000,44.050,77.889,-0.642,19.025,-86.756,1.431,48.330,0.762,-0.023,0.244
87.734,799.500,12.000,44.050,77.894,-0.645,19.030,-86.391,1.406,48.324,0.783,0.095,0.018
87.783,801.500,12.000,44.050,77.894,-0.645,19.030,-86.704,1.439,48.324,0.779,-0.043,0.244
87.833,801.000,12.000,44.050,77.894,-0.645,19.033,-86.861,1.427,48.330,0.766,-0.023,0.244
87.883,801.500,12.000,44.050,77.898,-0.641,19.025,-86.965,1.398,48.330,0.766,-0.004,0.294
87.934,798.000,13.000,44.050,77.893,-0.645,19.031,-86.913,1.418,48.324,0.775,-0.043,0.294
87.984,801.000,12.000,44.050,77.893,-0.645,19.031,-87.017,1.386,48.336,0.779,-0.043,0.294
88.033,801.000,12.000,44.050,77.893,-0.645,19.032,-86.913,1.377,48.312,0.754,-0.004,0.057
88.083,798.000,13.000,43.050,77.883,-0.647,19.032,-86.704,1.431,48.307,0.758,-0.043,0.254
88.133,799.500,12.000,44.050,77.883,-0.647,19.029,-86.443,1.369,48.324,0.754,-0.161,0.205
88.183,801.000,12.000,44.050,77.883,-0.647,19.029,-86.443,1.390,48.324,0.762,-0.023,0.284
88.233,801.000,12.000,44.050,77.895,-0.644,19.034,-86.339,1.394,48.342,0.803,-0.023,0.146
88.283,798.000,13.000,44.050,77.895,-0.644,19.029,-86.547,1.406,48.295,0.787,-0.043,0.028
88.334,800.000,12.000,44.050,77.895,-0.647,19.027,-86.495,1.439,48.289,0.779,-0.023,0.274
88.383,802.000,11.000,43.050,77.895,-0.655,19.037,-86.600,1.435,48.289,0.791,-0.023,0.264
88.433,800.000,12.000,44.050,77.895,-0.655,19.030,-86.495,1.427,48.271,0.787,-0.023,0.264
88.483,802.000,11.000,44.050,77.901,-0.651,19.029,-86.339,1.476,48.289,0.787,-0.004,0.274
88.533,798.000,13.000,44.050,77.901,-0.651,19.029,-86.600,1.386,48.289,0.795,-0.023,0.195
88.583,798.000,13.000,44.050,77.904,-0.646,19.031,-86.652,1.414,48.283,0.832,-0.083,0.087
88.634,801.000,12.000,44.050,77.904,-0.646,19.034,-86.391,1.418,48.283,0.803,-0.063,0.225
88.684,798.500,13.000,44.050,77.895,-0.645,19.032,-86.286,1.398,48.283,0.816,-0.043,0.195
88.734,800.000,12.000,44.050,77.895,-0.645,19.034,-86.704,1.418,48.283,0.811,-0.043,0.244
88.783,801.000,12.000,44.050,77.895,-0.645,19.028,-86.547,1.431,48.289,0.820,-0.004,0.294
88.833,797.500,13.000,44.050,77.895,-0.640,19.028,-86.808,1.406,48.283,0.820,-0.004,0.461
88.883,800.000,12.000,44.050,77.895,-0.640,19.028,-86.808,1.377,48.312,0.820,-0.043,0.422
88.933,802.000,11.000,43.050,77.895,-0.640,18.991,-86.861,1.377,48.342,0.775,-0.023,0.294
88.984,802.000,11.000,43.050,77.895,-0.640,18.991,-86.965,1.435,48.336,0.758,-0.043,0.185
89.034,800.000,12.000,44.050,77.892,-0.639,19.032,-86.600,1.435,48.324,0.865,-0.023,0.432
89.084,800.000,12.000,44.050,77.895,-0.646,19.035,-86.547,1.373,48.336,0.820,-0.063,0.067
89.133,798.000,13.000,44.050,77.897,-0.651,19.039,-86.339,1.431,48.366,0.852,-0.043,0.057
89.183,800.000,12.000,44.050,77.897,-0.651,19.039,-87.017,1.439,48.378,0.807,-0.023,0.254
89.233,802.000,11.000,43.050,77.894,-0.649,19.032,-86.861,1.431,48.360,0.750,-0.063,0.254
89.283,797.500,13.000,43.050,77.894,-0.649,19.029,-87.070,1.402,48.395,0.783,-0.083,0.294
89.333,800.000,12.000,44.050,77.892,-0.643,19.033,-87.174,1.414,48.378,0.791,-0.023,0.146
89.383,801.500,11.000,44.050,77.892,-0.643,19.021,-87.383,1.431,48.366,0.770,-0.023,0.264
89.434,797.500,13.000,44.050,77.882,-0.642,19.035,-87.226,1.431,48.384,0.762,-0.043,0.244
89.483,800.000,12.000,44.050,77.882,-0.642,19.035,-87.226,1.439,48.324,0.775,-0.023,0.195
89.533,801.000,12.000,44.050,77.882,-0.642,18.980,-87.174,1.459,48.324,0.795,-0.063,0.254
89.583,798.000,13.000,44.050,77.884,-0.639,19.029,-87.592,1.468,48.336,0.779,-0.043,0.225
89.634,799.500,12.000,44.050,77.887,-0.643,19.031,-87.226,1.439,48.336,0.783,-0.063,0.067
89.683,801.000,12.000,44.050,77.887,-0.643,19.031,-87.435,1.418,48.330,0.783,0.095,0.225
89.734,797.500,13.000,44.050,77.887,-0.643,19.027,-86.808,1.427,48.283,0.783,0.016,0.254
89.783,799.500,12.000,44.050,77.877,-0.638,19.027,-87.017,1.402,48.348,0.787,-0.004,0.244
89.834,801.000,12.000,44.050,77.876,-0.647,19.026,-87.435,1.427,48.330,0.762,-0.023,0.008
89.883,797.500,13.000,44.050,77.876,-0.647,19.026,-86.600,1.410,48.324,0.746,-0.043,0.185
89.934,799.500,13.000,45.050,77.876,-0.647,19.025,-86.391,1.410,48.289,0.775,-0.004,0.274
89.983,802.000,12.000,45.050,77.886,-0.647,19.062,-86.495,1.435,48.277,0.787,-0.043,0.284
90.033,798.000,13.000,44.050,77.900,-0.649,19.028,-86.808,1.435,48.283,0.795,-0.063,0.264
90.083,799.500,13.000,44.050,77.900,-0.649,19.028,-86.443,1.435,48.289,0.770,-0.043,0.303
90.134,796.500,14.000,44.050,77.900,-0.649,19.041,-86.391,1.418,48.301,0.779,5.630,22.288
90.183,764.000,27.000,44.050,77.902,-0.649,19.030,-86.808,1.431,48.336,0.746,14.199,68.226
90.233,731.500,50.000,98.050,77.902,-0.649,19.032,-86.286,1.480,48.307,0.754,16.130,111.839
90.283,752.500,48.000,98.050,77.901,-0.645,19.033,-86.547,1.484,48.330,0.779,33.898,58.366
90.333,769.000,40.000,106.050,77.890,-0.646,19.029,-86.704,1.476,48.372,0.783,12.210,86.053
90.383,782.000,37.000,106.050,77.890,-0.646,19.034,-86.130,1.488,48.360,0.787,6.477,80.636
90.433,784.500,78.000,113.050,77.890,-0.646,19.037,-86.078,1.480,48.372,0.775,6.556,77.819
90.483,796.500,78.000,113.050,77.889,-0.645,19.032,-86.861,1.464,48.372,0.770,10.693,78.410
90.534,847.000,79.000,204.050,77.889,-0.645,19.032,-86.652,1.435,48.384,0.807,9.294,79.622
90.583,903.000,65.000,204.050,77.742,-0.630,19.033,-87.592,1.496,48.360,0.820,9.176,79.395
90.634,944.000,70.000,193.050,77.742,-0.630,19.033,-88.740,1.443,48.366,0.844,2.163,80.419
90.684,944.000,70.000,193.050,77.834,-0.356,19.029,-88.688,1.410,48.591,0.873,2.163,79.651
90.734,985.000,71.000,193.050,77.834,-0.356,19.023,-88.270,1.353,48.591,0.910,4.054,80.262
90.784,1016.000,72.000,218.050,77.903,-0.361,19.022,-88.688,1.558,48.561,0.951,4.389,79.632
90.833,1091.500,76.000,245.050,78.133,-1.010,19.030,-88.688,1.701,48.472,1.029,22.906,79.494
90.883,1133.500,70.000,245.050,78.133,-1.010,19.030,-88.584,1.833,48.419,1.082,22.985,79.700
90.933,1154.500,54.000,204.050,78.133,-1.010,19.038,-88.375,1.849,48.342,1.082,2.124,79.238
90.983,1154.500,54.000,204.050,76.883,-1.053,19.032,-88.218,1.808,48.247,0.976,1.946,79.395
91.033,1153.500,48.000,172.050,76.716,-0.870,19.040,-88.531,1.517,48.206,0.816,1.769,80.272
91.083,1145.500,50.000,172.050,76.716,-0.870,19.040,-88.270,1.209,48.295,0.664,1.749,80.213
91.133,1137.500,53.000,181.050,76.716,-0.870,19.034,-88.009,0.967,48.324,0.492,1.749,79.080
91.183,1129.000,56.000,181.050,77.008,-0.925,19.031,-88.166,0.902,48.324,0.363,1.769,78.459
91.234,1126.000,56.000,195.050,76.648,-1.149,19.036,-88.427,0.910,48.514,0.389,1.730,79.119
91.284,1119.500,59.000,195.050,76.648,-1.149,19.036,-88.479,1.033,48.792,0.406,1.749,77.642
91.334,1119.500,59.000,195.050,75.998,-1.142,19.035,-88.166,1.230,49.269,0.560,1.769,77.829
91.383,1115.000,64.000,209.050,75.998,-1.142,19.035,-88.479,1.300,49.833,0.758,9.176,76.608
91.434,1117.500,67.000,226.050,75.952,-0.858,19.277,-88.479,1.386,50.404,0.852,11.107,77.258
91.483,1117.500,67.000,226.050,75.952,-0.858,19.322,-88.479,1.455,50.696,0.889,12.564,75.780
91.533,1126.000,65.000,224.050,75.952,-0.858,19.322,-88.270,1.505,50.828,0.910,2.636,74.894
91.583,1135.500,64.000,224.050,76.391,-0.583,19.301,-88.584,1.492,51.114,0.873,2.656,71.525
91.633,1147.500,59.000,220.050,77.722,-0.470,19.301,-88.323,1.468,51.399,0.742,2.597,68.413
91.683,1153.500,52.000,220.050,77.722,-0.470,19.301,-88.584,1.418,51.883,0.615,1.277,65.793
91.733,1155.000,49.000,185.050,79.704,-0.620,19.307,-88.688,1.382,52.402,0.505,1.158,63.252
91.783,1152.000,47.000,185.050,79.704,-0.620,19.307,-88.740,1.312,53.127,0.488,1.139,61.065
91.833,1147.000,48.000,178.050,79.704,-0.620,19.284,-80.731,1.300,53.757,0.458,1.218,59.007
91.883,1147.000,48.000,178.050,79.704,-0.620,19.284,-73.567,1.414,54.350,0.556,1.158,56.830
91.934,1137.500,52.000,178.050,78.396,-0.799,19.304,-70.407,1.451,54.906,0.779,0.863,54.909
91.983,1129.500,53.000,188.050,75.689,-0.917,19.307,-69.220,1.583,55.822,0.935,0.784,57.549
92.034,1123.500,59.000,202.050,74.524,-0.743,19.305,-69.815,1.578,56.378,0.980,0.784,57.204
92.084,1123.500,61.000,202.050,74.524,-0.743,19.308,-71.546,1.537,56.891,0.951,17.745,57.775
92.133,1123.000,62.000,206.050,74.524,-0.743,19.308,-73.422,1.382,57.151,0.869,17.784,60.435
92.183,1126.000,61.000,206.050,75.040,-0.665,19.305,-75.712,1.328,57.216,0.783,17.784,63.665
92.233,1125.000,63.000,211.050,75.040,-0.665,19.297,-79.601,1.209,57.322,0.635,1.927,65.911
92.283,1129.500,62.000,211.050,75.040,-0.665,19.297,-84.198,1.148,57.567,0.440,1.749,66.354
92.333,1131.000,61.000,214.050,75.312,-0.955,19.306,-84.250,1.127,58.088,0.333,1.592,67.792
92.383,1133.000,61.000,214.050,75.312,-0.955,19.301,-79.476,1.107,58.593,0.222,1.513,67.004
92.433,1133.500,61.000,213.050,75.312,-0.955,19.301,-75.670,1.066,59.098,0.295,1.552,68.058
92.483,1133.500,61.000,213.050,74.662,-0.889,19.302,-73.388,1.283,59.709,0.432,1.316,68.423
92.534,1133.500,61.000,214.050,75.504,-0.662,19.305,-72.260,1.443,60.345,0.647,1.355,67.960
92.583,1133.500,61.000,214.050,75.504,-0.662,19.305,-72.015,1.607,60.866,0.799,1.355,68.846
92.633,1132.500,62.000,214.050,76.836,-0.533,19.292,-72.249,1.591,61.175,0.976,1.257,68.856
92.683,1132.000,62.000,214.050,76.836,-0.533,19.292,-72.830,1.615,61.289,0.951,1.355,71.712
92.733,1126.000,65.000,216.050,78.655,-0.768,19.321,-73.232,1.509,61.265,0.816,1.749,74.007
92.783,1125.000,67.000,216.050,78.655,-0.768,19.302,-73.612,1.320,61.314,0.598,1.769,75.928
92.834,1122.000,70.000,228.050,79.359,-1.334,19.305,-73.455,1.004,61.607,0.410,2.163,79.041
92.883,1120.000,73.000,228.050,79.359,-1.334,19.305,-72.551,0.505,62.023,0.205,2.143,82.094
92.934,1115.500,79.000,247.050,79.301,-2.874,19.309,-71.657,-0.416,62.267,0.183,2.124,88.250
92.983,1119.000,78.000,247.050,79.301,-2.874,19.309,-70.585,-2.096,62.666,0.286,2.971,85.581
93.033,1130.000,73.000,248.050,79.934,-6.595,19.308,-70.206,-4.689,63.057,0.556,24.325,78.637
93.083,1130.000,73.000,248.050,79.934,-6.595,19.308,-70.094,-7.128,63.212,0.947,32.125,77.327
93.133,1140.500,71.000,246.050,79.934,-6.595,19.309,-69.893,-8.579,63.342,1.332,2.971,78.430
93.183,1147.000,67.000,246.050,81.969,-9.986,19.309,-70.038,-9.370,63.489,1.168,2.537,78.597
93.234,1149.500,64.000,227.050,84.086,-8.631,19.308,-71.456,-9.567,63.578,0.483,1.966,77.425
93.283,1155.000,59.000,227.050,84.086,-8.631,19.308,-72.975,-9.528,63.587,-0.245,1.946,76.618
93.333,1162.500,52.000,196.050,84.086,-8.631,19.309,-74.304,-9.238,63.570,-0.712,1.749,79.218
93.383,1162.500,52.000,196.050,84.086,-8.631,19.309,-76.109,-8.374,63.424,-0.978,4.035,78.637
93.433,1164.500,48.000,196.050,84.790,-7.453,19.308,-78.054,-7.070,63.359,-0.763,7.817,77.790
93.483,1161.500,41.000,165.050,84.790,-7.453,19.309,-79.873,-5.415,63.513,-0.134,10.181,79.454
93.534,1161.500,41.000,165.050,86.290,-4.117,19.308,-82.057,-3.454,63.587,0.578,3.207,78.765
93.583,1150.000,43.000,161.050,86.290,-4.117,19.308,-82.005,-1.149,63.774,0.992,2.163,79.366
93.633,1146.500,43.000,163.050,86.290,-4.117,19.306,-80.041,-0.065,63.883,1.148,2.183,77.996
93.683,1143.500,44.000,163.050,88.259,-0.716,19.303,-78.911,0.282,63.905,0.984,1.809,77.829
93.733,1142.500,44.000,163.050,88.259,-0.716,19.303,-78.012,0.415,63.938,0.754,2.025,78.706
93.783,1138.500,45.000,163.050,88.259,-0.716,19.303,-77.761,0.824,63.927,0.470,10.929,78.223
93.833,1138.500,45.000,164.050,91.348,2.415,16.836,-78.200,1.259,63.839,0.222,10.988,79.484
93.883,1136.000,45.000,164.050,91.348,2.415,16.836,-79.601,1.800,63.603,0.102,2.025,79.641
93.933,1134.500,46.000,164.050,91.994,1.715,16.834,-81.327,2.358,63.570,0.269,1.828,78.410
93.983,1136.000,46.000,164.050,91.994,1.715,16.834,-82.632,2.780,63.367,0.462,10.043,79.897
94.034,1137.500,45.000,164.050,91.927,1.206,16.834,-82.684,3.162,63.383,0.705,10.397,80.016
94.083,1137.500,45.000,164.050,91.927,1.206,16.834,-80.689,3.305,63.359,0.787,2.143,79.789
94.134,1136.500,45.000,164.050,91.927,1.206,16.832,-79.037,3.285,63.497,0.869,1.749,80.232
94.183,1138.000,45.000,164.050,91.125,0.774,16.835,-77.677,3.133,63.489,0.758,1.749,81.503
94.233,1138.000,45.000,165.050,91.125,0.774,16.835,-76.339,2.797,63.595,0.639,1.730,80.144
94.283,1138.000,45.000,165.050,92.094,0.406,16.835,-75.502,2.423,63.701,0.509,1.730,80.882
94.333,1136.500,45.000,166.050,92.094,0.406,16.833,-75.189,2.071,63.741,0.428,1.749,81.286
94.383,1136.000,45.000,166.050,93.427,0.073,16.836,-74.959,1.710,63.570,0.380,1.927,81.385
94.434,1136.000,45.000,166.050,93.427,0.073,16.834,-75.042,1.726,63.619,0.419,1.966,83.414
94.483,1137.500,45.000,166.050,93.281,-0.261,16.835,-75.461,2.034,63.481,0.573,2.025,81.759
94.533,1142.500,44.000,163.050,93.281,-0.261,16.833,-75.795,2.764,63.416,0.602,1.966,82.626
94.583,1143.000,44.000,163.050,93.511,0.402,16.830,-76.151,3.941,63.375,0.725,1.828,82.941
94.633,1142.000,43.000,160.050,94.407,3.122,16.824,-76.067,4.925,63.399,0.742,1.690,81.227
94.683,1142.500,43.000,160.050,94.407,3.122,16.824,-75.063,5.278,63.521,0.910,1.828,82.892
94.733,1142.500,43.000,160.050,95.726,4.749,16.827,-73.969,5.061,63.497,0.787,1.946,82.527
94.783,1140.000,43.000,159.050,95.726,4.749,16.827,-73.478,4.622,63.489,0.840,1.946,82.429
94.834,1137.500,44.000,159.050,95.726,4.749,16.824,-73.132,4.851,63.497,1.000,1.966,84.389
94.883,1137.500,44.000,159.050,96.858,3.411,16.825,-73.254,5.233,63.448,1.193,1.946,83.473
94.934,1135.500,44.000,159.050,96.866,2.066,16.832,-73.902,5.175,63.350,1.304,1.966,82.911
94.983,1135.500,44.000,159.050,96.866,2.066,16.832,-74.673,5.085,63.310,1.242,1.966,83.079
95.033,1134.000,44.000,160.050,96.493,1.178,16.827,-75.231,4.745,63.269,1.123,1.966,82.655
95.083,1133.000,45.000,160.050,96.493,1.178,16.827,-76.025,4.220,63.285,0.889,1.986,83.453
95.133,1134.500,45.000,161.050,96.493,1.178,16.831,-76.213,3.531,63.310,0.560,1.927,83.483
95.183,1133.500,44.000,161.050,96.147,0.386,16.822,-75.398,2.944,63.383,0.415,1.966,82.695
95.233,1133.500,44.000,161.050,96.147,0.386,16.849,-74.684,2.427,63.521,0.355,4.369,84.064
95.284,1135.500,44.000,162.050,96.147,0.386,16.849,-74.516,2.214,63.554,0.389,4.389,82.645
95.333,1135.500,44.000,161.050,96.026,-0.167,16.821,-74.393,2.210,63.587,0.505,3.148,82.084
95.383,1136.000,44.000,161.050,96.189,-0.259,16.824,-74.483,2.333,63.627,0.668,2.203,83.690
95.433,1139.000,44.000,161.050,96.189,-0.259,16.824,-75.042,2.493,63.513,0.684,1.986,76.785
95.483,1139.500,43.000,161.050,96.691,0.411,16.822,-75.921,2.456,63.481,0.750,65.141,82.261
95.533,1140.000,43.000,161.050,96.691,0.411,16.833,-76.548,2.657,63.391,0.656,65.338,80.291
95.583,1140.000,43.000,161.050,96.691,0.411,16.833,-76.464,2.883,63.546,0.639,65.161,79.395
95.633,1138.500,43.000,161.050,97.270,1.314,16.836,-76.485,2.887,63.456,0.606,67.032,80.035
95.683,1134.000,44.000,160.050,97.172,-0.959,16.836,-76.318,3.006,63.489,0.623,37.523,88.614
95.733,1134.500,44.000,161.050,96.859,-4.724,16.836,-75.921,3.051,63.473,0.779,29.308,82.852
95.783,1132.000,45.000,161.050,96.859,-4.724,16.836,-75.753,2.784,63.489,0.848,20.050,83.887
95.834,1136.000,44.000,161.050,96.497,-5.762,16.836,-75.942,2.222,63.497,0.721,28.816,83.079
95.884,1134.000,44.000,161.050,96.497,-5.762,16.836,-75.712,1.513,63.473,0.496,32.933,78.863
95.933,1134.000,44.000,160.050,96.497,-5.762,16.831,-75.607,1.135,63.456,0.291,60.216,80.331
95.983,1135.500,44.000,160.050,96.497,-5.762,16.831,-75.461,0.610,63.489,0.248,58.443,79.848
96.033,1134.500,44.000,160.050,96.254,-6.268,16.831,-75.565,0.243,63.489,0.141,59.271,81.296
96.083,1135.500,44.000,160.050,96.254,-6.268,16.831,-75.314,0.453,63.489,0.261,59.093,80.193
96.133,1136.500,44.000,160.050,96.285,-4.259,16.829,-74.959,0.951,63.530,0.286,59.054,80.232
96.184,1135.000,44.000,160.050,96.285,-4.259,16.829,-74.959,1.468,63.538,0.458,58.325,81.138
96.233,1132.000,45.000,161.050,97.048,0.452,16.834,-75.335,1.890,63.530,0.693,56.907,88.516
96.283,1128.500,46.000,161.050,97.048,0.452,16.834,-75.105,2.112,63.546,0.758,19.144,79.700
96.333,1128.500,46.000,161.050,97.048,0.452,16.834,-75.523,2.132,63.521,0.754,27.339,82.005
96.383,1131.500,47.000,175.050,97.048,0.452,16.834,-75.774,2.272,63.473,0.832,27.142,81.050
96.434,1133.000,47.000,170.050,98.582,2.405,16.834,-76.213,2.403,63.489,0.770,26.629,81.739
96.484,1135.000,47.000,170.050,100.901,1.580,16.834,-75.983,2.136,63.456,0.660,10.437,80.754
96.533,1135.500,46.000,169.050,101.250,-0.153,16.834,-76.213,1.878,63.416,0.582,12.584,80.163
96.583,1137.500,46.000,169.050,101.250,-0.153,16.834,-76.485,1.611,63.391,0.492,3.522,81.070
96.633,1137.500,46.000,169.050,101.250,-0.153,16.834,-76.381,1.287,63.440,0.513,2.518,80.459
96.683,1138.000,46.000,167.050,101.250,-0.153,16.834,-76.381,1.115,63.521,0.440,2.025,82.192
96.734,1135.500,46.000,166.050,98.867,0.682,16.834,-74.740,1.140,63.521,0.402,10.358,81.395
96.783,1135.000,46.000,166.050,98.867,0.682,16.834,-73.478,0.893,63.538,0.419,3.109,81.739
96.834,1134.000,46.000,166.050,98.867,0.682,16.834,-71.836,0.522,63.603,0.406,2.340,82.764
96.883,1133.000,47.000,166.050,97.790,1.506,16.834,-69.261,0.458,63.660,0.398,1.887,83.128
96.934,1133.000,47.000,166.050,96.917,1.540,16.834,-66.376,0.543,63.815,0.376,1.769,83.690
96.983,1131.500,47.000,167.050,96.917,1.540,16.834,-64.120,0.651,63.823,0.488,1.749,83.965
97.033,1136.000,46.000,168.050,96.917,1.540,16.834,-63.301,0.799,63.883,0.530,1.769,82.872
97.084,1137.000,46.000,168.050,96.917,1.540,16.834,-63.098,1.017,63.894,0.526,1.887,84.241
97.133,1140.500,45.000,165.050,95.496,1.262,16.834,-63.260,1.103,63.636,0.518,3.601,84.123
97.183,1140.500,45.000,165.050,95.190,1.186,16.834,-63.974,1.053,63.424,0.513,4.350,83.305
97.234,1141.000,45.000,165.050,95.190,1.186,16.834,-65.665,0.959,63.130,0.380,3.168,83.670
97.284,1142.500,44.000,162.050,96.807,1.395,16.834,-67.552,0.947,62.805,0.363,3.168,83.305
97.334,1140.500,44.000,162.050,96.807,1.395,16.834,-68.960,0.832,62.568,0.346,1.769,82.705
97.383,1138.500,44.000,162.050,100.079,1.429,16.834,-69.759,0.750,62.381,0.316,1.769,83.552
97.433,1137.000,44.000,162.050,100.079,1.429,16.834,-69.737,0.488,62.145,0.372,1.769,82.084
97.484,1132.500,45.000,162.050,102.427,0.668,16.834,-69.647,-0.048,61.721,0.453,1.749,82.291
97.533,1130.000,46.000,166.050,101.146,-0.092,16.834,-69.893,-0.348,61.249,0.535,5.276,81.976
97.583,1126.500,48.000,166.050,101.146,-0.092,16.834,-70.719,-0.391,60.841,0.606,7.147,79.966
97.633,1127.500,51.000,171.050,101.146,-0.092,16.834,-71.378,-0.618,60.784,0.569,2.833,81.621
97.683,1127.000,51.000,171.050,101.146,-0.092,16.834,-71.970,-1.098,60.947,0.530,2.203,79.809
97.733,1127.000,51.000,171.050,98.128,-0.492,16.834,-72.126,-1.727,61.094,0.342,1.927,80.282
97.783,1127.500,51.000,178.050,98.128,-0.492,16.834,-71.322,-2.507,61.184,0.175,1.749,79.612
97.833,1128.500,51.000,179.050,93.201,-2.347,16.558,-70.116,-2.926,60.898,0.158,1.769,80.882
97.883,1128.500,51.000,179.050,93.201,-2.347,16.558,-69.124,-2.716,60.385,0.119,3.641,83.286
97.934,1133.000,50.000,181.050,93.201,-2.347,16.559,-69.636,-2.229,60.002,0.076,4.901,82.508
97.983,1140.000,49.000,181.050,94.447,-3.098,16.552,-72.059,-1.346,59.929,0.205,3.109,83.069
98.033,1145.500,46.000,175.050,96.957,-3.265,25.321,-75.272,0.256,60.214,0.355,2.478,83.473
98.083,1148.000,43.000,175.050,96.957,-3.265,25.321,-86.182,0.852,60.149,0.385,2.104,82.320
98.133,1146.500,43.000,160.050,96.957,-3.265,25.332,-89.001,-0.082,59.701,0.483,1.927,84.330
98.183,1146.500,43.000,160.050,100.514,-2.191,25.329,-88.531,-0.159,58.919,0.355,1.749,83.108
98.233,1142.000,43.000,160.050,100.514,-2.191,25.322,-88.479,0.123,58.430,0.333,1.769,82.665
98.283,1139.000,44.000,160.050,100.514,-2.191,25.322,-88.427,0.543,57.510,0.488,1.789,84.310
98.333,1139.000,44.000,160.050,101.898,0.381,25.319,-88.531,1.546,57.029,1.066,1.769,82.872
98.383,1136.000,44.000,160.050,101.898,0.381,25.319,-88.323,2.641,57.664,1.693,1.749,82.833
98.433,1132.500,45.000,163.050,100.066,2.226,25.317,-88.218,3.564,58.723,2.013,1.749,83.621
98.483,1130.500,46.000,163.050,100.066,2.226,25.317,-83.676,3.793,59.326,1.993,1.769,83.296
98.534,1130.500,46.000,163.050,101.246,2.345,25.319,-73.444,3.436,59.538,1.640,1.651,83.394
98.584,1132.500,46.000,166.050,101.246,2.345,25.319,-68.167,2.715,59.025,0.857,2.006,84.556
98.633,1132.500,46.000,165.050,101.246,2.345,25.326,-66.540,1.788,58.642,0.042,1.946,82.734
98.683,1133.500,46.000,165.050,99.425,1.327,25.335,-68.071,1.164,58.569,-0.502,1.809,83.296
98.733,1136.000,45.000,164.050,97.191,0.637,25.323,-71.032,0.758,58.235,-0.712,1.749,83.000
98.783,1135.500,45.000,164.050,97.191,0.637,25.323,-72.774,0.943,57.730,-0.498,1.927,83.039
98.833,1137.500,45.000,162.050,98.198,0.484,25.324,-72.875,1.394,57.192,-0.027,7.088,83.916
98.883,1134.500,45.000,162.050,98.198,0.484,25.324,-71.713,2.046,56.720,0.488,5.118,82.714
98.933,1134.500,45.000,162.050,98.198,0.484,25.323,-69.502,2.489,56.589,1.025,2.400,82.892
98.983,1135.500,45.000,163.050,98.198,0.484,25.323,-67.565,2.575,56.842,1.316,2.143,83.217
99.033,1134.500,45.000,164.050,99.744,1.322,25.323,-67.319,2.633,57.054,1.357,1.769,81.552
99.083,1135.500,45.000,164.050,99.744,1.322,25.323,-69.070,2.194,57.102,1.131,1.789,83.108
99.134,1135.500,45.000,164.050,95.887,1.946,25.328,-71.389,1.443,56.980,0.721,1.769,82.862
99.183,1134.000,45.000,164.050,95.887,1.946,25.328,-74.248,0.922,56.524,0.325,1.848,81.582
99.234,1134.000,46.000,167.050,95.887,1.946,25.326,-77.907,0.573,55.931,0.016,24.403,83.749
99.283,1134.000,46.000,167.050,96.802,1.368,25.324,-79.643,0.543,55.470,-0.027,24.738,81.710
99.334,1135.000,46.000,167.050,98.971,0.543,25.323,-79.016,0.672,55.272,0.128,2.143,82.350
99.383,1132.500,46.000,167.050,98.971,0.543,25.323,-76.862,0.889,55.192,0.449,1.927,82.104
99.433,1134.000,46.000,168.050,98.971,0.543,25.325,-75.293,1.115,55.111,0.762,4.310,81.138
99.483,1132.000,46.000,168.050,97.566,0.089,25.324,-74.393,1.570,55.045,0.980,8.979,83.128
99.533,1132.000,47.000,166.050,97.566,0.089,25.324,-73.723,1.882,54.987,1.090,2.734,81.296
99.584,1133.500,46.000,166.050,97.566,0.089,25.324,-72.942,1.796,54.921,0.976,2.163,82.074
99.633,1133.000,46.000,165.050,94.535,0.665,25.318,-71.590,1.209,54.921,0.725,1.848,82.094
99.683,1134.500,46.000,165.050,94.377,1.672,25.323,-70.842,0.861,54.936,0.479,1.848,81.276
99.733,1132.500,46.000,166.050,94.377,1.672,25.320,-71.267,0.664,54.870,0.256,1.710,83.030
99.783,1133.500,46.000,166.050,96.302,1.904,25.321,-73.757,0.619,54.679,0.243,1.789,81.483
99.833,1133.500,46.000,168.050,96.302,1.904,25.316,-78.890,0.647,54.401,0.239,1.789,81.917
99.883,1133.500,46.000,168.050,96.302,1.904,25.316,-84.563,0.664,53.977,0.423,1.966,82.419
99.933,1134.000,46.000,169.050,98.112,1.400,25.309,-86.182,0.602,53.493,0.676,1.986,81.168
99.983,1134.000,46.000,169.050,98.112,1.400,25.321,-81.796,1.123,53.047,0.832,1.749,82.951
100.033,1135.500,46.000,168.050,98.116,1.005,25.322,-79.392,1.509,53.222,0.988,1.809,81.523
100.083,1135.500,46.000,168.050,98.116,1.005,25.322,-77.615,1.472,53.340,1.000,1.749,82.074
100.134,1135.000,46.000,167.050,98.116,1.005,25.327,-77.970,1.464,53.471,0.947,1.769,82.902
100.184,1135.000,46.000,167.050,96.822,0.658,25.323,-80.480,1.480,53.449,0.869,1.789,82.508
100.234,1136.000,46.000,167.050,96.202,0.953,25.323,-85.138,1.295,53.149,0.660,1.789,81.729
100.283,1137.000,46.000,167.050,96.202,0.953,25.323,-87.383,1.049,52.959,0.509,1.769,82.695
100.333,1135.500,46.000,166.050,96.202,0.953,25.325,-83.728,1.012,52.747,0.458,1.690,82.084
100.383,1137.000,46.000,166.050,95.524,1.227,25.325,-80.626,1.135,52.798,0.483,1.769,83.099
100.434,1136.500,46.000,165.050,95.524,1.227,25.322,-80.041,1.156,52.805,0.526,1.769,82.320
100.483,1133.500,46.000,165.050,94.790,1.443,25.325,-79.413,1.377,52.768,0.684,1.769,82.074
100.533,1135.000,46.000,166.050,94.790,1.443,25.326,-79.183,1.484,52.637,0.877,1.769,82.508
100.583,1133.500,46.000,166.050,94.131,1.591,25.323,-78.639,1.492,52.520,0.902,1.749,82.271
100.633,1135.000,46.000,166.050,93.482,1.352,25.315,-78.765,1.542,52.337,0.922,1.769,82.675
100.683,1133.000,46.000,166.050,93.482,1.352,25.315,-78.744,1.439,52.271,0.840,1.749,83.276
100.734,1134.000,46.000,166.050,93.482,1.352,25.325,-78.556,1.304,52.227,0.705,1.749,81.946
100.783,1134.000,46.000,166.050,92.940,1.047,25.312,-79.350,1.238,52.139,0.672,1.690,82.281
100.833,1134.000,46.000,167.050,92.940,1.047,25.325,-79.622,1.103,52.073,0.578,1.749,82.281
100.883,1134.500,46.000,167.050,92.940,1.047,25.321,-78.326,1.033,51.948,0.590,1.749,82.025
100.933,1136.000,46.000,167.050,91.630,1.035,25.324,-78.514,1.074,52.000,0.590,1.769,82.852
100.983,1135.500,46.000,167.050,91.630,1.035,25.324,-79.309,1.131,52.080,0.598,1.749,81.897
101.034,1136.500,46.000,168.050,90.973,1.106,25.325,-79.727,1.226,51.861,0.717,1.769,82.173
101.083,1136.500,46.000,168.050,90.973,1.106,25.325,-79.769,1.365,51.839,0.734,1.749,82.902
101.133,1137.500,46.000,168.050,90.973,1.106,25.322,-79.706,1.505,51.692,0.770,1.769,80.932
101.183,1136.500,46.000,168.050,90.973,1.106,25.317,-80.668,1.464,51.582,0.746,1.710,82.527
101.234,1135.500,46.000,167.050,90.618,1.257,25.328,-81.118,1.377,51.568,0.742,1.769,81.493
101.283,1132.500,47.000,167.050,90.090,1.080,25.324,-81.796,1.250,51.480,0.676,1.749,81.286
101.333,1131.500,47.000,167.050,89.582,0.946,25.323,-82.057,1.181,51.465,0.606,1.749,83.355
101.383,1131.500,47.000,167.050,89.582,0.946,25.323,-82.057,1.070,51.414,0.496,1.789,81.296
101.434,1126.000,50.000,172.050,89.582,0.946,25.323,-82.266,0.906,51.348,0.535,1.809,82.508
101.483,1127.000,50.000,172.050,89.109,0.797,25.322,-82.423,0.955,51.312,0.543,1.809,81.483
101.534,1128.000,51.000,178.050,89.109,0.797,25.319,-82.214,1.058,51.202,0.602,1.749,82.074
101.583,1128.000,51.000,178.050,89.261,0.758,25.321,-83.780,1.156,51.085,0.709,1.769,82.882
101.633,1130.500,50.000,178.050,89.684,1.023,25.319,-86.600,1.226,50.945,0.721,1.710,81.503
101.683,1131.000,50.000,180.050,89.684,1.023,25.319,-87.383,1.279,50.777,0.717,1.749,83.059
101.733,1136.000,49.000,179.050,89.684,1.023,25.318,-87.800,1.283,50.601,0.651,1.848,81.493
101.783,1136.000,49.000,179.050,89.568,0.904,25.324,-88.688,1.185,50.491,0.643,1.749,81.789
101.833,1139.500,48.000,176.050,89.568,0.904,25.324,-88.584,1.103,50.455,0.651,1.749,83.049
101.884,1140.000,48.000,176.050,89.568,0.904,25.319,-88.636,1.074,50.382,0.598,1.769,81.513
101.933,1140.000,48.000,174.050,88.088,1.004,25.312,-86.861,0.910,50.360,0.586,1.769,82.025
101.984,1140.000,48.000,174.050,86.860,0.827,25.311,-83.989,0.820,50.448,0.573,1.927,82.508
102.033,1140.000,48.000,172.050,86.860,0.827,25.306,-82.945,0.750,50.616,0.539,1.927,82.104
102.083,1140.500,48.000,172.050,86.818,0.891,25.322,-82.997,0.738,50.682,0.598,1.887,82.251
102.134,1139.000,47.000,171.050,87.205,0.827,25.323,-85.660,0.799,50.448,0.590,13.707,82.025
102.183,1139.000,47.000,171.050,87.205,0.827,25.323,-87.748,0.787,50.060,0.639,7.167,82.094
102.233,1138.000,47.000,170.050,87.097,1.071,25.319,-88.375,0.783,49.745,0.693,2.183,82.813
102.283,1138.000,47.000,170.050,87.097,1.071,25.319,-88.427,0.787,49.715,0.705,2.143,82.508
102.333,1136.000,48.000,170.050,87.097,1.071,25.319,-88.218,0.951,49.650,0.623,1.769,82.311
102.383,1139.000,47.000,169.050,85.940,1.299,25.324,-88.479,1.107,49.613,0.676,1.769,83.030
102.433,1141.500,46.000,167.050,85.940,1.299,25.324,-88.688,1.304,49.671,0.697,1.848,83.443
102.483,1141.000,45.000,167.050,85.940,1.299,25.326,-88.531,1.509,49.913,0.734,1.789,83.887
102.534,1142.500,44.000,160.050,86.428,1.634,25.320,-88.636,1.693,50.235,0.729,1.946,84.911
102.583,1139.000,44.000,160.050,88.136,1.405,25.321,-88.636,1.710,50.001,0.852,1.966,83.463
102.633,1140.500,44.000,160.050,87.638,1.244,25.326,-88.584,1.681,49.401,0.902,1.769,83.118
102.683,1137.500,44.000,160.050,87.638,1.244,25.326,-88.740,1.533,48.709,0.910,1.789,84.300
102.733,1137.500,44.000,160.050,87.638,1.244,25.323,-88.375,1.304,48.561,0.828,1.769,82.724
102.783,1133.000,45.000,161.050,87.638,1.244,25.325,-88.636,1.135,48.875,0.770,1.730,83.463
102.833,1124.500,50.000,172.050,86.214,1.172,25.320,-88.479,1.017,49.503,0.725,1.868,83.266
102.883,1122.500,53.000,172.050,86.214,1.172,25.320,-88.323,0.996,49.884,0.754,1.887,83.039
102.933,1125.500,54.000,196.050,85.755,1.209,25.325,-88.218,1.254,49.657,0.844,1.769,84.379
102.983,1127.500,54.000,196.050,85.755,1.209,25.319,-85.869,1.394,49.305,0.807,1.749,82.508
103.033,1127.500,54.000,196.050,85.530,1.263,25.320,-82.893,1.402,49.122,0.811,1.946,83.955
103.083,1129.500,54.000,197.050,85.054,1.132,25.336,-82.632,1.263,49.218,0.750,1.927,82.961
103.133,1129.500,54.000,197.050,83.990,1.220,25.324,-81.744,1.066,49.452,0.668,1.809,83.443
103.183,1118.000,64.000,202.050,83.990,1.220,25.324,-80.396,1.074,49.628,0.688,1.809,84.162
103.234,1118.000,64.000,202.050,83.990,1.220,25.324,-78.702,1.123,49.715,0.734,1.730,82.744
103.283,1122.000,66.000,221.050,83.307,1.289,25.324,-77.594,1.320,49.759,0.766,1.690,84.340
103.334,1122.000,66.000,221.050,82.888,1.310,25.315,-77.280,1.369,49.752,0.779,1.789,83.128
103.384,1127.500,65.000,222.050,82.888,1.310,25.315,-78.535,1.341,49.759,0.734,1.789,84.320
103.433,1127.500,65.000,223.050,82.888,1.310,25.330,-80.438,1.287,49.906,0.643,1.749,83.128
103.484,1132.000,65.000,223.050,83.422,1.302,25.324,-86.391,1.209,49.862,0.475,1.749,83.709
103.533,1132.000,65.000,223.050,83.422,1.302,25.317,-88.845,1.201,49.525,0.406,5.512,84.340
103.583,1133.500,64.000,222.050,83.422,1.302,25.317,-88.375,1.189,49.122,0.363,11.146,82.705
103.633,1140.500,63.000,220.050,83.650,1.228,25.324,-88.427,1.250,48.781,0.488,11.264,84.251
103.683,1145.500,60.000,220.050,83.364,1.326,25.336,-88.584,1.480,48.401,0.602,1.828,83.118
103.734,1148.500,57.000,208.050,83.364,1.326,25.320,-88.427,1.587,48.295,0.811,1.710,83.197
103.783,1151.000,54.000,208.050,82.893,1.379,25.324,-88.531,1.640,48.366,1.070,1.749,83.630
103.833,1147.500,54.000,192.050,82.893,1.379,25.321,-88.323,1.742,48.597,1.176,1.789,81.739
103.883,1146.000,53.000,192.050,82.893,1.379,25.321,-88.427,1.833,48.852,1.332,1.769,81.838
103.933,1141.000,55.000,192.050,82.742,1.416,25.318,-88.531,1.767,49.122,1.209,1.887,81.276
103.983,1137.000,55.000,192.050,82.742,1.416,25.318,-88.531,1.583,49.518,0.959,1.789,80.410
104.033,1127.500,58.000,199.050,82.742,1.416,25.321,-88.323,1.394,49.972,0.787,1.769,80.016
104.083,1122.500,63.000,199.050,82.335,1.341,25.298,-88.323,1.119,50.360,0.475,1.769,80.282
104.134,1122.500,63.000,199.050,81.434,1.295,25.320,-88.792,0.939,50.645,0.209,1.730,79.031
104.183,1117.500,71.000,217.050,81.434,1.295,25.320,-88.166,0.803,50.843,0.153,1.730,79.041
104.233,1122.000,70.000,235.050,81.434,1.295,25.319,-88.531,0.816,50.821,0.183,1.592,78.233
104.283,1124.500,71.000,235.050,81.278,1.222,25.321,-88.792,1.086,50.675,0.291,1.572,79.198
104.333,1124.500,71.000,235.050,81.278,1.222,25.319,-88.218,1.254,50.506,0.548,1.552,77.809
104.383,1133.000,68.000,235.050,81.863,1.196,25.333,-88.531,1.578,50.191,0.779,1.552,78.026
104.433,1136.500,67.000,231.050,81.863,1.196,25.327,-88.897,1.763,50.140,1.053,1.533,76.992
104.483,1139.000,66.000,231.050,81.863,1.196,25.306,-88.688,1.784,50.279,1.279,1.474,74.618
104.534,1144.500,64.000,226.050,81.463,1.442,25.322,-88.323,1.837,50.828,1.386,1.572,74.165
104.583,1149.000,60.000,226.050,81.463,1.442,25.322,-88.323,1.812,51.582,1.353,1.552,70.609
104.634,1152.000,56.000,204.050,81.881,1.526,25.334,-88.531,1.788,52.380,1.103,1.178,67.812
104.683,1149.500,56.000,204.050,81.881,1.526,25.334,-88.479,1.566,53.230,0.779,1.158,65.202
104.733,1146.000,56.000,203.050,82.795,1.411,25.321,-88.479,1.406,53.896,0.445,1.158,62.917
104.783,1139.500,58.000,203.050,82.795,1.411,25.321,-83.154,1.185,54.365,0.278,1.198,61.055
104.833,1139.500,58.000,203.050,82.153,1.460,25.320,-75.816,0.922,54.789,0.158,1.001,64.759
104.883,1126.000,62.000,206.050,82.153,1.460,25.320,-72.897,0.832,55.126,0.102,0.962,67.201
104.933,1121.500,67.000,226.050,82.153,1.460,25.329,-71.646,0.939,55.660,0.231,1.493,68.836
104.983,1120.000,70.000,226.050,80.747,1.486,25.321,-71.133,1.140,56.188,0.445,1.730,71.634
105.033,1120.000,70.000,226.050,80.747,1.486,25.322,-71.579,1.386,56.622,0.647,1.887,70.619
105.084,1128.500,69.000,236.050,80.919,1.485,25.318,-72.517,1.587,56.997,0.832,7.876,73.062
105.133,1128.500,69.000,236.050,80.919,1.485,25.324,-74.003,1.673,57.347,0.889,7.955,75.061
105.183,1128.000,69.000,233.050,81.543,1.359,25.323,-74.959,1.583,57.526,0.881,2.065,79.730
105.233,1122.000,75.000,240.050,80.646,1.457,25.322,-75.377,1.398,57.656,0.791,2.301,87.196
105.283,1123.500,75.000,240.050,80.646,1.457,25.322,-75.001,1.152,57.941,0.697,3.050,93.165
105.334,1136.000,71.000,247.050,78.369,1.484,25.314,-74.092,1.119,58.341,0.565,5.256,74.766
105.383,1144.500,68.000,247.050,78.369,1.484,25.314,-73.042,1.115,58.960,0.522,4.192,77.662
105.433,1146.000,66.000,233.050,78.369,1.484,25.318,-71.747,1.222,59.351,0.449,4.172,78.410
105.483,1148.000,64.000,233.050,77.193,1.544,25.319,-70.764,1.386,59.815,0.475,2.242,80.094
105.534,1148.000,64.000,233.050,77.713,1.221,25.318,-70.351,1.410,60.222,0.505,5.689,78.420
105.583,1143.500,63.000,223.050,77.713,1.221,25.318,-70.585,1.291,60.483,0.453,12.151,79.011
105.633,1143.500,63.000,223.050,77.644,0.343,25.328,-71.244,0.816,60.744,0.475,17.194,81.483
105.683,1138.500,65.000,222.050,77.644,0.343,25.328,-72.316,-0.155,60.898,0.509,8.703,80.262
105.734,1130.000,67.000,227.050,75.760,-1.894,25.325,-72.897,-1.325,60.939,0.466,1.966,81.493
105.783,1130.000,67.000,227.050,75.760,-1.894,25.325,-72.785,-2.575,60.939,0.552,1.946,81.483
105.833,1126.500,69.000,232.050,75.760,-1.894,25.332,-72.249,-3.285,60.980,0.631,1.966,81.001
105.883,1126.500,69.000,232.050,75.760,-1.894,25.335,-72.439,-3.657,61.395,0.543,1.966,82.724
105.933,1132.000,68.000,232.050,74.723,-5.053,25.335,-73.187,-3.830,61.762,0.303,1.749,80.882
105.983,1135.500,67.000,231.050,74.723,-5.053,25.335,-73.768,-3.958,62.177,-0.086,1.769,82.123
106.033,1138.500,66.000,228.050,75.467,-4.795,25.335,-74.204,-4.045,62.259,-0.382,1.887,80.853
106.083,1138.500,66.000,228.050,77.601,-4.022,25.335,-74.854,-3.921,62.243,-0.592,1.769,80.479
106.134,1141.500,65.000,226.050,77.601,-4.022,25.335,-75.189,-3.492,62.080,-0.622,4.172,82.143
106.183,1141.500,65.000,226.050,78.379,-3.921,25.335,-75.628,-3.075,61.949,-0.463,6.733,81.887
106.233,1145.000,62.000,221.050,78.379,-3.921,25.335,-76.402,-2.695,61.892,-0.056,2.675,80.232
106.283,1148.000,59.000,221.050,78.159,-3.122,25.335,-78.535,-2.130,62.104,0.145,2.577,80.538
106.333,1152.000,55.000,202.050,78.159,-3.122,25.335,-81.849,-1.706,62.137,0.445,1.848,79.829
106.383,1147.500,55.000,202.050,78.159,-3.122,25.335,-87.644,-1.367,62.218,0.458,10.338,79.572
106.433,1147.500,55.000,202.050,78.740,-1.444,25.333,-88.740,-0.969,62.291,0.329,5.886,80.410
106.483,1145.500,54.000,196.050,78.740,-1.444,25.333,-87.853,-0.811,62.186,0.398,8.349,81.040
106.534,1142.000,56.000,196.050,80.450,0.088,25.333,-83.519,-0.579,62.071,0.342,8.388,79.819
106.583,1139.000,56.000,198.050,79.187,0.355,25.333,-80.229,-0.352,61.900,0.308,1.828,80.735
106.634,1139.000,56.000,200.050,79.187,0.355,25.333,-78.807,-0.121,62.096,0.410,1.769,80.291
106.685,1137.500,57.000,200.050,77.728,1.573,25.333,-79.434,0.218,62.291,0.372,1.769,79.612
106.733,1138.000,57.000,201.050,77.728,1.573,25.333,-80.333,0.543,62.544,0.453,5.512,80.124
106.784,1135.000,57.000,201.050,78.034,1.635,25.333,-82.684,0.787,62.625,0.552,2.853,79.769
106.834,1135.000,57.000,201.050,78.034,1.635,25.333,-86.025,1.119,62.495,0.509,2.577,80.025
106.884,1134.500,58.000,202.050,79.867,1.643,25.333,-88.636,1.484,62.267,0.582,1.887,80.262
106.933,1132.000,58.000,202.050,79.867,1.643,25.333,-88.688,1.726,62.014,0.573,1.730,80.262
106.983,1133.500,58.000,202.050,80.105,1.820,25.333,-88.688,1.775,61.917,0.619,1.769,80.932
107.033,1132.500,58.000,202.050,80.105,1.820,25.333,-88.270,1.747,61.917,0.627,1.789,79.651
107.083,1135.000,58.000,202.050,78.971,2.215,25.333,-88.740,1.697,61.957,0.565,3.818,79.848
107.133,1133.000,59.000,203.050,78.971,2.215,25.333,-88.375,1.652,62.348,0.543,7.659,81.247
107.184,1135.000,58.000,203.050,78.971,2.215,25.333,-85.451,1.607,62.625,0.590,6.458,79.572
107.233,1135.000,58.000,204.050,79.706,1.751,25.333,-82.110,1.525,62.642,0.606,18.888,79.632
107.283,1136.500,58.000,204.050,79.706,1.751,25.333,-80.354,1.517,62.585,0.619,19.006,80.331
107.333,1136.500,58.000,204.050,79.706,1.751,25.333,-80.208,1.455,62.520,0.535,2.242,79.661
107.383,1135.500,58.000,204.050,79.706,1.751,25.333,-79.936,1.451,62.462,0.539,1.789,80.311
107.433,1137.000,58.000,204.050,79.979,1.283,25.333,-80.605,1.398,62.454,0.505,1.769,80.469
107.483,1136.500,58.000,203.050,79.979,1.283,25.333,-82.057,1.254,62.487,0.423,1.769,80.311
107.533,1136.000,58.000,202.050,79.979,1.283,25.333,-83.467,0.988,62.617,0.351,1.769,80.902
107.583,1136.000,58.000,202.050,79.979,1.283,25.333,-84.563,0.602,62.666,0.368,1.789,80.075
107.633,1137.000,58.000,202.050,79.871,1.086,25.333,-84.772,0.440,62.699,0.449,1.690,80.538
107.684,1137.500,57.000,202.050,79.871,1.086,25.333,-84.094,0.415,62.666,0.522,1.789,80.656
107.734,1138.000,57.000,201.050,80.722,0.468,25.333,-82.057,0.535,62.764,0.526,1.730,79.868
107.783,1138.500,57.000,201.050,80.722,0.468,25.333,-81.796,0.578,62.788,0.594,1.730,80.301
107.834,1137.500,57.000,200.050,80.722,0.468,25.333,-81.431,0.560,62.796,0.483,1.749,81.158
107.883,1134.000,58.000,200.050,80.849,0.361,25.333,-80.375,0.539,62.805,0.325,1.769,80.282
107.933,1132.000,58.000,200.050,80.854,0.323,25.333,-79.852,0.338,62.894,0.196,1.868,80.833
107.983,1129.000,59.000,200.050,80.854,0.323,25.333,-79.162,0.222,62.959,0.166,1.710,79.700
108.033,1128.500,59.000,204.050,80.884,0.559,25.333,-78.409,0.111,63.041,0.119,1.789,79.730
108.083,1126.000,62.000,204.050,80.884,0.559,25.333,-77.970,0.128,63.057,0.132,1.749,81.582
108.133,1126.000,62.000,204.050,80.884,0.559,25.333,-77.656,0.239,63.098,0.201,1.749,79.632
108.183,1129.500,62.000,211.050,80.884,0.559,25.333,-77.761,0.342,63.122,0.235,1.769,80.853
108.233,1133.000,61.000,213.050,80.888,0.769,25.333,-77.928,0.526,63.139,0.321,1.749,79.641
108.283,1135.500,61.000,213.050,80.940,0.934,25.333,-78.137,0.635,63.098,0.355,1.749,80.272
108.334,1138.500,60.000,211.050,81.022,1.074,25.333,-78.848,0.729,63.049,0.312,1.769,80.941
108.383,1144.500,58.000,211.050,81.022,1.074,25.333,-78.932,0.770,63.057,0.261,1.769,80.282
108.433,1156.000,51.000,200.050,80.866,1.261,25.333,-78.472,0.922,62.992,0.252,1.749,81.513
108.483,1155.500,48.000,200.050,80.866,1.261,25.333,-78.158,0.951,63.000,0.252,1.809,80.607
108.533,1154.000,46.000,174.050,80.866,1.261,25.333,-77.803,1.033,62.919,0.321,1.769,79.622
108.583,1154.000,46.000,174.050,80.866,1.261,25.333,-77.803,1.144,63.000,0.445,1.749,80.892
108.634,1143.000,50.000,180.050,81.478,1.376,25.333,-76.883,1.053,63.147,0.303,1.710,80.567
108.684,1143.000,50.000,180.050,81.478,1.376,25.333,-75.502,1.066,63.139,0.089,1.769,80.272
108.733,1137.000,51.000,182.050,81.478,1.376,25.333,-74.784,1.025,63.293,0.141,1.769,79.612
108.783,1132.500,51.000,182.050,81.478,1.376,25.333,-74.728,0.898,63.310,0.051,1.769,81.887
108.833,1132.500,52.000,182.050,80.690,1.377,25.333,-74.938,0.943,63.342,-0.044,4.350,80.272
108.883,1133.500,52.000,182.050,80.690,1.377,25.333,-75.837,0.873,63.424,-0.074,3.148,80.291
108.934,1133.500,52.000,183.050,80.690,1.377,25.333,-76.736,0.848,63.383,-0.022,3.010,80.853
108.983,1135.500,51.000,183.050,81.304,1.370,25.333,-77.301,0.963,63.245,0.081,1.848,79.641
109.033,1133.500,52.000,183.050,81.304,1.370,25.333,-78.221,1.062,63.073,0.166,1.789,81.483
109.083,1134.500,51.000,183.050,81.304,1.370,25.333,-78.221,1.074,62.943,0.252,1.789,80.469
109.133,1135.000,52.000,185.050,81.902,1.723,25.333,-78.179,1.295,62.829,0.380,1.769,80.144
109.183,1135.000,52.000,185.050,81.902,1.723,25.333,-77.866,1.443,62.829,0.355,1.769,81.513
109.233,1134.500,52.000,185.050,81.716,2.075,25.333,-77.866,1.509,62.821,0.338,1.789,79.533
109.283,1135.500,52.000,185.050,81.716,2.075,25.333,-77.426,1.501,62.927,0.226,1.789,80.646
109.333,1135.000,52.000,186.050,81.716,2.075,25.333,-76.318,1.525,63.057,0.209,1.769,80.459
109.383,1135.500,52.000,186.050,81.716,2.075,25.333,-75.377,1.468,63.106,0.162,1.749,79.917
109.433,1134.500,52.000,185.050,82.020,2.160,25.333,-75.126,1.451,63.155,0.132,1.769,81.621
109.483,1135.000,52.000,185.050,82.020,2.160,25.333,-74.980,1.492,63.179,0.115,1.749,79.897
109.533,1135.000,52.000,185.050,82.327,1.917,25.333,-74.695,1.570,63.196,0.166,1.769,80.873
109.583,1133.500,53.000,187.050,82.327,1.917,25.333,-74.684,1.591,63.065,0.136,1.769,80.873
109.633,1132.500,53.000,187.050,82.413,1.821,25.333,-74.784,1.537,62.902,0.153,1.769,79.730
109.683,1133.000,53.000,187.050,82.413,1.821,25.333,-74.740,1.529,62.927,0.265,1.769,82.005
109.733,1132.000,53.000,188.050,82.413,1.821,25.333,-74.762,1.427,62.796,0.278,1.749,80.351
109.784,1133.500,53.000,188.050,82.413,1.821,25.333,-74.807,1.349,62.691,0.252,1.749,81.267
109.833,1132.000,53.000,188.050,82.308,1.655,25.333,-74.717,1.271,62.707,0.252,1.769,80.823
109.883,1132.000,53.000,188.050,82.308,1.655,25.333,-74.427,1.259,62.886,0.239,1.769,79.632
109.934,1131.500,54.000,188.050,82.787,1.542,25.333,-74.382,1.193,62.894,0.231,1.769,81.759
109.983,1131.000,54.000,188.050,82.866,1.432,25.333,-74.248,1.148,62.927,0.145,1.690,80.981
110.033,1133.500,54.000,190.050,82.866,1.432,25.333,-73.924,1.033,62.943,0.072,1.749,81.513
110.083,1133.500,54.000,190.050,82.848,1.369,25.333,-73.679,1.062,62.935,0.025,1.769,81.483
110.133,1134.000,54.000,190.050,82.707,1.343,25.333,-73.701,1.033,62.968,0.021,1.769,80.636
110.184,1135.000,53.000,190.050,82.707,1.343,25.333,-73.656,1.012,63.033,-0.014,1.789,81.444
110.233,1135.500,53.000,189.050,82.707,1.343,25.333,-73.567,1.033,62.943,0.033,1.789,82.232
110.283,1136.000,53.000,189.050,82.851,1.287,25.333,-73.567,0.984,62.951,0.025,1.769,80.981
110.333,1138.000,53.000,190.050,82.851,1.287,25.333,-73.623,0.914,62.919,0.008,1.749,82.104
110.383,1138.500,53.000,190.050,83.016,1.225,25.333,-73.779,0.943,62.911,0.008,1.749,81.276
110.433,1141.000,52.000,187.050,83.304,1.155,25.333,-73.746,0.922,62.911,0.016,1.789,81.907
110.483,1140.000,52.000,187.050,83.304,1.155,25.333,-73.489,0.898,62.845,0.012,1.730,81.877
110.533,1140.500,52.000,186.050,83.304,1.155,25.333,-73.187,0.910,62.723,0.046,1.769,81.798
110.583,1138.000,52.000,186.050,83.304,1.155,25.333,-73.132,0.902,62.625,-0.035,1.749,82.094
110.633,1139.500,52.000,184.050,82.477,1.158,25.333,-72.864,1.000,62.748,-0.009,1.749,82.468
110.683,1136.500,52.000,184.050,82.477,1.158,25.333,-72.953,0.967,62.821,-0.052,1.749,81.641
110.733,1136.500,52.000,183.050,82.869,1.129,25.333,-73.031,0.951,62.894,-0.022,1.769,82.064
110.783,1135.500,52.000,183.050,82.869,1.129,25.333,-73.132,0.861,62.927,-0.134,1.749,82.350
110.833,1135.500,52.000,183.050,83.543,1.022,25.333,-73.087,0.803,62.935,-0.138,1.769,81.483
110.883,1136.000,52.000,184.050,83.543,1.022,25.333,-72.886,0.770,62.911,-0.168,1.769,82.911
110.933,1134.500,52.000,185.050,83.543,1.022,25.333,-72.674,0.799,62.853,-0.116,1.749,82.035
110.983,1135.500,52.000,185.050,83.669,1.055,16.550,-72.718,0.832,62.764,-0.104,1.769,82.094
111.033,1135.000,52.000,186.050,83.594,1.030,16.551,-73.020,0.918,62.715,-0.108,1.730,83.118
111.083,1135.000,52.000,186.050,83.594,1.030,16.551,-73.176,0.943,62.788,-0.052,1.809,81.493
111.133,1135.000,52.000,186.050,83.594,1.030,16.550,-73.444,0.922,62.658,-0.134,1.769,82.488
