time(sec),engine_speed(rpm),actual_torque(%),fuel_rate(LPH),tilt_pitch(deg),tilt_roll(deg),tilt_yaw(deg),arm_tilit(deg),arm_roll(deg),boom_tilit(deg),boom_roll(deg),pressure(bar),flow_rate(LPM)
33.310,798.500,12.000,42.050,43.973,-0.428,10.713,-38.115,0.803,56.268,0.179,-0.083,0.057
33.360,799.500,11.000,43.050,43.976,-0.440,10.711,-38.088,0.799,56.275,0.218,0.055,0.087
33.411,797.500,12.000,43.050,43.976,-0.440,10.711,-38.094,0.807,56.210,0.209,-0.083,0.047
33.461,799.000,12.000,43.050,43.968,-0.433,10.703,-38.061,0.811,56.246,0.243,-0.083,0.047
33.510,799.500,12.000,43.050,43.968,-0.433,10.703,-38.115,0.840,56.232,0.248,-0.083,0.067
33.560,799.500,12.000,43.050,43.974,-0.429,10.707,-38.099,0.816,56.268,0.248,-0.023,0.097
33.610,799.500,12.000,43.050,43.974,-0.429,10.707,-38.035,0.869,56.268,0.261,-0.063,0.067
33.660,801.000,11.000,42.050,43.974,-0.429,10.709,-38.078,0.848,56.378,0.213,-0.063,0.067
33.711,800.500,11.000,42.050,43.991,-0.426,10.705,-38.035,0.848,56.319,0.231,-0.102,0.077
33.760,801.000,11.000,42.050,43.989,-0.441,10.713,-38.061,0.824,56.327,0.222,-0.083,0.028
33.810,801.500,11.000,42.050,43.989,-0.441,10.713,-38.067,0.807,56.349,0.226,0.075,0.077
33.861,800.500,11.000,41.050,43.976,-0.443,10.709,-38.061,0.820,56.341,0.231,-0.043,0.067
33.910,800.500,11.000,41.050,43.976,-0.443,10.709,-38.115,0.828,56.319,0.222,-0.102,0.284
33.960,802.500,10.000,41.050,43.972,-0.439,10.709,-38.142,0.811,56.334,0.213,-0.063,0.106
34.010,800.000,11.000,41.050,43.972,-0.439,10.709,-38.115,0.840,56.122,0.218,-0.063,0.156
34.061,800.000,11.000,42.050,43.979,-0.430,10.709,-38.158,0.832,56.290,0.222,-0.043,0.106
34.111,801.500,10.000,42.050,43.979,-0.430,10.709,-38.120,0.807,56.268,0.192,-0.083,0.057
34.161,799.000,11.000,40.050,43.990,-0.425,10.710,-38.126,0.787,56.363,0.192,-0.063,0.097
34.211,799.000,11.000,40.050,43.990,-0.425,10.710,-38.136,0.795,56.319,0.209,-0.063,0.126
34.261,801.000,10.000,41.050,43.993,-0.427,10.701,-38.147,0.807,56.319,0.213,-0.102,0.116
34.311,799.000,11.000,41.050,43.993,-0.427,10.701,-38.115,0.799,56.254,0.226,-0.043,0.116
34.360,799.500,11.000,42.050,43.990,-0.429,10.707,-38.163,0.795,56.268,0.209,-0.063,0.284
34.410,800.500,10.000,42.050,43.990,-0.429,10.707,-38.104,0.811,56.283,0.256,-0.102,0.067
34.460,799.000,11.000,41.050,43.982,-0.429,10.707,-38.158,0.795,56.261,0.243,-0.083,0.038
34.510,799.000,11.000,41.050,43.982,-0.429,10.707,-38.072,0.791,56.261,0.222,-0.063,0.087
34.560,800.500,11.000,41.050,44.000,-0.438,10.697,-38.083,0.816,56.312,0.209,-0.063,0.146
34.610,799.000,11.000,41.050,44.000,-0.438,10.697,-38.078,0.816,56.239,0.201,-0.083,0.047
34.660,800.500,11.000,41.050,43.998,-0.439,10.706,-38.120,0.828,56.334,0.179,-0.083,0.136
34.710,801.000,10.000,41.050,43.998,-0.439,10.706,-38.131,0.820,56.327,0.239,-0.063,0.087
34.761,799.000,11.000,41.050,43.985,-0.437,10.711,-38.136,0.840,56.319,0.213,-0.083,0.057
34.810,799.000,11.000,41.050,43.985,-0.437,10.711,-38.131,0.803,56.356,0.231,-0.083,0.047
34.860,800.000,11.000,42.050,43.977,-0.425,10.709,-38.126,0.816,56.341,0.222,-0.083,0.067
34.910,797.500,12.000,42.050,43.977,-0.425,10.709,-38.072,0.803,56.334,0.222,-0.083,0.087
34.960,799.000,11.000,43.050,43.985,-0.410,10.708,-38.078,0.787,56.334,0.222,-0.083,0.057
35.010,800.000,11.000,43.050,43.985,-0.410,10.708,-38.045,0.803,56.319,0.196,-0.063,0.028
35.060,798.500,12.000,42.050,44.001,-0.416,10.706,-38.035,0.828,56.305,0.196,-0.083,0.333
35.111,799.000,11.000,42.050,44.001,-0.416,10.706,-38.013,0.816,56.349,0.201,-0.102,0.274
35.161,800.000,11.000,42.050,44.005,-0.427,10.700,-38.056,0.791,56.217,0.218,-0.083,0.087
35.210,799.500,11.000,42.050,44.005,-0.427,10.700,-38.083,0.791,56.239,0.235,-0.083,0.106
35.260,799.000,12.000,42.050,43.999,-0.432,10.720,-38.099,0.803,56.312,0.222,-0.083,0.097
35.310,799.000,12.000,42.050,43.999,-0.432,10.720,-38.072,0.848,56.334,0.231,-0.102,0.047
35.361,800.500,11.000,42.050,44.002,-0.431,10.703,-38.104,0.820,56.312,0.213,-0.142,0.146
35.410,799.500,11.000,42.050,44.002,-0.431,10.703,-38.078,0.832,56.319,0.226,-0.063,0.087
35.460,801.000,11.000,43.050,44.020,-0.436,10.701,-38.078,0.803,56.319,0.235,-0.083,0.077
35.511,799.500,11.000,43.050,44.020,-0.436,10.679,-38.120,0.787,56.334,0.209,-0.122,0.067
35.561,799.500,11.000,42.050,44.018,-0.437,10.704,-38.078,0.795,56.319,0.213,-0.083,0.038
35.610,799.500,11.000,42.050,44.018,-0.437,10.704,-38.099,0.836,56.341,0.196,-0.023,0.106
35.661,801.000,11.000,41.050,44.004,-0.436,10.707,-38.083,0.816,56.334,0.222,-0.102,0.057
35.710,800.000,11.000,41.050,44.004,-0.436,10.707,-38.104,0.803,56.334,0.226,-0.063,0.057
35.760,801.500,11.000,42.050,43.988,-0.435,10.708,-38.099,0.803,56.327,0.226,-0.083,0.057
35.810,801.500,11.000,42.050,43.988,-0.435,10.708,-38.120,0.832,56.319,0.213,-0.161,0.057
35.860,799.500,11.000,42.050,43.988,-0.435,10.708,-38.088,0.787,56.341,0.226,-0.063,0.106
35.910,799.500,11.000,42.050,43.991,-0.440,10.709,-38.158,0.787,56.334,0.213,-0.004,0.126
35.961,799.500,11.000,42.050,44.013,-0.436,10.705,-38.142,0.816,56.319,0.243,-0.063,0.057
36.011,799.500,11.000,42.050,44.013,-0.436,10.707,-38.142,0.811,56.378,0.231,-0.102,0.106
36.060,800.500,11.000,42.050,44.016,-0.431,10.709,-38.120,0.795,56.349,0.213,-0.063,0.126
36.110,799.500,11.000,42.050,44.016,-0.431,10.709,-38.142,0.791,56.394,0.239,-0.043,0.087
36.160,799.500,11.000,42.050,43.998,-0.429,10.709,-38.158,0.807,56.394,0.248,-0.083,0.057
36.210,800.000,11.000,42.050,43.998,-0.429,10.702,-38.163,0.791,56.386,0.256,-0.063,0.038
36.260,800.000,11.000,42.050,43.993,-0.417,10.711,-38.158,0.799,56.363,0.239,-0.102,0.106
36.310,798.500,12.000,42.050,43.993,-0.417,10.711,-38.115,0.803,56.363,0.231,-0.102,0.067
36.360,802.000,10.000,41.050,44.008,-0.419,10.705,-38.131,0.770,56.402,0.269,-0.201,0.126
36.411,800.000,11.000,41.050,44.008,-0.419,10.702,-38.136,0.762,56.341,0.248,0.055,0.116
36.462,800.000,11.000,42.050,44.021,-0.426,10.702,-38.115,0.775,56.327,0.248,-0.102,0.106
36.511,801.500,10.000,42.050,44.021,-0.426,10.702,-38.152,0.803,56.327,0.252,-0.083,0.067
36.560,799.000,11.000,42.050,44.025,-0.435,10.708,-38.152,0.795,56.327,0.256,-0.083,0.156
36.610,799.500,11.000,42.050,44.025,-0.435,10.708,-38.142,0.758,56.261,0.222,-0.102,0.077
36.660,801.000,11.000,42.050,44.010,-0.437,10.690,-38.142,0.791,56.305,0.213,0.036,0.126
36.710,799.500,11.000,42.050,44.010,-0.437,10.690,-38.126,0.820,56.319,0.222,-0.063,0.077
36.760,799.500,11.000,42.050,44.010,-0.437,10.719,-38.163,0.803,56.327,0.209,-0.063,0.215
36.810,801.500,10.000,42.050,44.012,-0.435,10.706,-38.131,0.803,56.334,0.209,-0.083,0.106
36.860,799.500,11.000,41.050,44.029,-0.433,10.683,-38.110,0.811,56.363,0.226,-0.083,-0.110
36.911,799.500,11.000,41.050,44.029,-0.433,10.683,-38.078,0.783,56.394,0.231,-0.083,0.067
36.960,801.000,10.000,41.050,44.032,-0.439,10.710,-38.088,0.770,56.371,0.209,-0.122,0.087
37.010,801.000,10.000,41.050,44.032,-0.439,10.710,-38.088,0.803,56.378,0.192,-0.083,0.077
37.061,798.500,11.000,42.050,44.018,-0.437,10.708,-38.088,0.803,56.349,0.196,-0.102,0.136
37.110,801.000,10.000,42.050,44.018,-0.437,10.708,-38.099,0.783,56.334,0.201,-0.083,0.077
37.160,798.000,11.000,42.050,44.017,-0.435,10.711,-38.094,0.770,56.305,0.196,-0.004,0.146
37.210,798.500,11.000,42.050,44.017,-0.435,10.711,-38.083,0.803,56.363,0.183,-0.083,0.087
37.260,801.000,11.000,42.050,44.034,-0.438,10.712,-38.099,0.816,56.356,0.179,-0.102,0.097
37.311,798.500,11.000,42.050,44.034,-0.438,10.708,-38.115,0.795,56.334,0.213,-0.102,0.087
37.360,798.500,12.000,43.050,44.044,-0.446,10.708,-38.088,0.791,56.349,0.218,-0.063,0.067
37.410,798.500,12.000,43.050,44.044,-0.446,10.708,-38.061,0.807,56.312,0.226,-0.102,0.028
37.460,799.000,11.000,42.050,44.031,-0.446,10.709,-38.035,0.770,56.349,0.222,-0.083,0.028
37.510,799.000,11.000,42.050,44.031,-0.446,10.709,-38.040,0.783,56.349,0.231,-0.063,0.057
37.560,800.500,11.000,42.050,44.013,-0.439,10.704,-38.051,0.807,56.334,0.226,-0.063,0.087
37.610,800.500,11.000,42.050,44.013,-0.439,10.704,-38.072,0.807,56.334,0.235,-0.102,0.047
37.661,798.000,12.000,42.050,44.013,-0.439,10.710,-38.078,0.762,56.356,0.231,-0.083,0.028
37.710,799.000,12.000,43.050,44.011,-0.432,10.706,-38.126,0.791,56.305,0.222,-0.063,0.077
37.761,798.500,12.000,43.050,44.027,-0.432,10.706,-38.136,0.799,56.334,0.256,-0.063,0.057
37.811,799.500,12.000,43.050,44.027,-0.432,10.708,-38.136,0.816,56.319,0.265,-0.063,0.067
37.860,801.000,11.000,43.050,44.027,-0.432,10.708,-38.131,0.807,56.261,0.248,-0.083,0.116
37.910,800.000,11.000,43.050,44.049,-0.441,10.703,-38.104,0.836,56.275,0.256,-0.102,0.087
37.960,800.000,11.000,44.050,44.039,-0.444,10.709,-38.131,0.807,56.254,0.265,-0.083,0.077
38.010,802.000,11.000,44.050,44.039,-0.444,10.709,-38.131,0.836,56.290,0.252,-0.083,0.097
38.060,799.500,11.000,42.050,44.029,-0.432,10.708,-38.120,0.824,56.261,0.256,-0.063,0.038
38.111,799.500,11.000,42.050,44.029,-0.432,10.708,-38.120,0.811,56.275,0.256,-0.083,0.028
38.160,800.500,11.000,43.050,44.029,-0.432,10.711,-38.126,0.799,56.283,0.273,-0.043,0.038
38.210,798.500,12.000,43.050,44.043,-0.425,10.720,-38.142,0.828,56.283,0.291,-0.102,0.087
38.260,799.000,12.000,43.050,44.050,-0.427,10.703,-38.126,0.803,56.261,0.286,-0.083,0.126
38.311,800.500,11.000,43.050,44.050,-0.427,10.703,-38.136,0.824,56.239,0.243,-0.043,0.087
38.361,799.000,12.000,43.050,44.044,-0.435,10.708,-38.120,0.828,56.268,0.222,-0.043,0.067
38.410,800.000,12.000,43.050,44.044,-0.435,10.704,-38.126,0.783,56.363,0.209,-0.122,0.057
38.460,801.000,11.000,43.050,44.032,-0.431,10.703,-38.104,0.824,56.319,0.231,-0.063,0.067
38.510,801.000,11.000,43.050,44.032,-0.431,10.703,-38.142,0.844,56.378,0.222,-0.102,0.235
38.560,799.000,12.000,44.050,44.035,-0.438,10.711,-38.110,0.816,56.378,0.218,-0.102,0.166
38.610,801.000,11.000,44.050,44.035,-0.438,10.711,-38.088,0.811,56.356,0.226,-0.083,0.106
38.660,800.500,11.000,42.050,44.053,-0.441,10.706,-38.067,0.816,56.327,0.226,-0.083,0.136
38.710,799.500,12.000,42.050,44.053,-0.441,10.706,-38.094,0.791,56.341,0.218,-0.083,0.038
38.760,801.000,11.000,43.050,44.056,-0.439,10.707,-38.126,0.766,56.327,0.213,-0.083,0.097
38.810,801.000,11.000,43.050,44.056,-0.439,10.707,-38.163,0.803,56.356,0.218,-0.063,0.116
38.860,799.000,12.000,43.050,44.034,-0.436,10.705,-38.120,0.816,56.305,0.231,-0.063,0.087
38.910,800.500,11.000,43.050,44.034,-0.436,10.705,-38.147,0.811,56.327,0.218,-0.083,0.116
38.960,799.500,12.000,43.050,44.022,-0.434,10.707,-38.099,0.832,56.341,0.252,-0.043,0.067
39.010,800.000,12.000,43.050,44.022,-0.434,10.707,-38.083,0.811,56.327,0.248,-0.083,0.057
39.060,801.000,11.000,43.050,44.022,-0.434,10.715,-38.061,0.828,56.312,0.261,-0.181,0.136
39.111,800.500,11.000,43.050,44.033,-0.435,10.707,-38.099,0.820,56.319,0.252,-0.083,0.274
39.160,800.000,11.000,42.050,44.033,-0.435,10.707,-38.029,0.832,56.239,0.256,-0.043,0.057
39.211,801.000,11.000,42.050,44.048,-0.442,10.709,-38.104,0.832,56.283,0.235,-0.083,0.028
39.261,800.500,11.000,42.050,44.050,-0.446,10.684,-38.115,0.820,56.290,0.209,-0.063,0.087
39.310,799.500,11.000,42.050,44.050,-0.446,10.684,-38.115,0.803,56.349,0.218,-0.102,0.047
39.361,800.500,11.000,42.050,44.039,-0.444,10.711,-38.099,0.824,56.305,0.235,-0.063,0.097
39.410,800.500,11.000,42.050,44.039,-0.444,10.711,-38.120,0.807,56.334,0.231,-0.063,0.254
39.460,799.000,12.000,43.050,44.050,-0.432,10.718,-38.104,0.828,56.312,0.226,-0.083,0.254
39.510,800.500,11.000,43.050,44.050,-0.432,10.718,-38.072,0.803,56.297,0.218,-0.083,0.018
39.560,799.500,11.000,42.050,44.068,-0.432,10.709,-38.072,0.783,56.312,0.235,-0.083,0.097
39.611,799.000,12.000,42.050,44.068,-0.432,10.709,-38.088,0.807,56.239,0.231,-0.043,0.067
39.660,800.500,11.000,42.050,44.064,-0.442,10.701,-38.083,0.783,56.283,0.222,-0.083,0.047
39.711,800.000,11.000,42.050,44.064,-0.442,10.701,-38.110,0.807,56.305,0.235,-0.083,0.116
39.760,800.000,11.000,42.050,44.037,-0.444,10.709,-38.142,0.828,56.334,0.218,-0.083,0.097
39.810,800.500,11.000,42.050,44.037,-0.444,10.709,-38.120,0.795,56.319,0.226,-0.083,0.097
39.860,788.000,16.000,44.050,44.037,-0.444,10.741,-38.126,0.824,56.246,0.222,-0.083,0.106
39.910,778.500,20.000,44.050,44.030,-0.439,10.718,-38.158,0.799,56.275,0.222,-0.063,0.106
39.961,775.500,23.000,65.050,44.045,-0.425,10.707,-38.099,0.824,56.319,0.235,-0.083,0.077
40.010,779.000,31.000,65.050,44.045,-0.425,10.707,-38.115,0.824,56.312,0.222,-0.063,0.264
40.061,796.500,78.000,194.050,44.050,-0.422,10.710,-38.126,0.836,56.319,0.218,-0.083,0.077
40.110,796.500,78.000,194.050,44.050,-0.422,10.710,-38.136,0.807,56.334,0.231,0.016,0.067
40.160,927.500,60.000,167.050,44.050,-0.422,10.705,-38.136,0.820,56.378,0.213,0.016,0.087
40.210,927.500,60.000,167.050,44.049,-0.438,10.713,-38.142,0.783,56.378,0.218,-0.083,0.166
40.260,1031.500,66.000,201.050,44.051,-0.447,10.694,-38.232,0.787,56.319,0.252,-0.083,0.047
40.310,1079.000,67.000,201.050,44.051,-0.447,10.694,-38.318,0.779,56.334,0.243,-0.063,0.077
40.361,1129.000,50.000,217.050,44.051,-0.447,10.711,-38.515,0.783,56.312,0.213,-0.122,0.284
40.410,1169.000,28.000,217.050,44.165,-0.481,10.709,-38.569,0.713,56.268,0.231,-0.102,0.126
40.461,1172.500,22.000,105.050,43.751,-0.402,10.707,-38.398,0.664,56.166,0.231,-0.102,0.106
40.510,1166.000,21.000,105.050,43.751,-0.402,10.707,-38.318,0.729,56.107,0.209,-0.063,0.087
40.560,1159.000,22.000,96.050,43.496,-0.342,10.716,-38.382,0.787,56.210,0.351,-0.122,0.097
40.610,1148.500,24.000,96.050,43.496,-0.342,10.716,-38.264,0.906,56.232,0.376,-0.102,0.303
40.660,1143.000,25.000,103.050,42.940,-0.305,10.707,-37.987,0.902,56.239,0.376,-0.102,0.254
40.711,1135.000,27.000,103.050,42.940,-0.305,10.707,-37.832,0.840,56.210,0.321,-0.063,0.244
40.760,1135.000,27.000,110.050,42.245,-0.387,10.715,-37.933,0.807,56.305,0.286,-0.083,0.323
40.811,1130.000,28.000,110.050,42.245,-0.387,10.715,-37.955,0.762,56.319,0.201,-0.043,0.274
40.861,1128.500,28.000,112.050,41.364,-0.460,10.718,-38.126,0.734,56.232,0.132,-0.063,0.303
40.910,1124.000,29.000,112.050,41.364,-0.460,10.718,-38.078,0.742,56.283,0.132,-0.083,0.254
40.960,1123.000,31.000,116.050,39.913,-0.454,10.717,-38.163,0.820,56.327,0.119,-0.063,0.235
41.010,1123.000,31.000,116.050,39.913,-0.454,10.717,-38.152,0.824,56.283,0.269,-0.102,0.264
41.060,1133.000,30.000,118.050,38.199,-0.379,10.713,-37.960,0.840,56.290,0.239,-0.083,0.313
41.111,1138.500,29.000,118.050,38.199,-0.379,10.708,-37.853,0.893,56.341,0.248,-0.063,0.294
41.160,1136.000,29.000,115.050,36.910,-0.309,10.710,-37.512,0.844,56.443,0.256,-0.083,0.323
41.210,1136.000,29.000,115.050,36.910,-0.309,10.710,-36.734,0.795,56.363,0.226,-0.083,0.343
41.260,1132.000,30.000,115.050,36.910,-0.309,10.717,-35.274,0.865,56.195,0.252,-0.063,0.274
41.310,1124.500,31.000,118.050,34.599,-0.134,10.710,-33.385,0.902,56.334,0.333,-0.063,0.274
41.360,1117.500,40.000,148.050,34.104,-0.062,10.701,-31.905,0.893,56.703,0.355,-0.083,0.284
41.410,1119.500,41.000,148.050,34.104,-0.062,10.701,-31.142,0.783,56.964,0.261,-0.083,0.303
41.460,1123.500,40.000,151.050,35.599,-0.254,10.711,-31.083,0.639,56.866,0.059,-0.063,0.284
41.511,1127.500,39.000,151.050,35.599,-0.254,10.711,-32.066,0.518,56.524,-0.121,-0.102,0.481
41.560,1129.000,39.000,143.050,35.599,-0.254,10.712,-33.568,0.376,56.070,-0.271,-0.102,0.530
41.611,1139.000,37.000,143.050,36.419,-0.511,10.708,-34.618,0.428,55.873,-0.206,-0.083,0.274
41.660,1146.500,33.000,129.050,36.419,-0.511,10.711,-35.269,0.647,55.499,0.183,-0.063,0.530
41.710,1146.500,33.000,129.050,36.331,-0.410,10.708,-35.827,0.861,55.177,0.492,-0.063,0.432
41.760,1151.500,25.000,106.050,37.919,-0.289,10.710,-36.846,0.947,55.111,0.615,-0.122,0.412
41.810,1157.000,21.000,106.050,37.919,-0.289,10.710,-38.606,0.914,54.914,0.522,-0.083,0.303
41.860,1158.000,18.000,88.050,39.594,-0.521,10.708,-40.538,0.783,54.723,0.368,-0.063,0.540
41.910,1158.000,18.000,88.050,39.594,-0.521,10.708,-42.053,0.758,54.240,0.261,-0.161,0.471
41.960,1164.500,11.000,72.050,38.437,-0.419,10.717,-42.328,0.902,53.662,0.312,-0.102,0.451
42.011,1167.000,7.000,72.050,38.437,-0.419,10.717,-40.650,1.033,53.515,0.470,-0.083,0.540
42.060,1167.000,4.000,40.050,36.101,0.132,10.710,-38.259,1.144,53.874,0.656,-0.083,0.284
42.111,1151.000,6.000,40.050,36.101,0.132,10.710,-36.139,1.176,54.526,0.750,-0.023,0.303
42.160,1144.500,7.000,49.050,34.848,0.174,10.703,-34.297,1.189,54.899,0.619,-0.083,0.303
42.210,1130.000,8.000,49.050,34.848,0.174,10.703,-32.842,0.984,54.972,0.436,9.393,20.909
42.260,1077.500,27.000,83.050,34.697,-0.270,10.701,-32.310,0.758,54.943,-0.027,22.296,80.823
42.310,1062.000,43.000,83.050,34.697,-0.270,10.701,-32.321,0.543,54.804,-0.468,25.704,114.262
42.361,1069.500,52.000,164.050,34.697,-0.270,10.709,-32.858,0.355,54.840,-0.639,28.993,73.692
42.411,1090.000,51.000,164.050,34.687,-0.523,10.721,-33.557,0.436,54.928,-0.481,21.350,76.883
42.461,1104.500,47.000,170.050,34.899,-0.230,10.712,-34.111,0.750,54.972,-0.044,11.500,81.335
42.510,1118.000,43.000,170.050,34.899,-0.230,10.708,-34.558,0.947,54.811,0.333,28.343,74.185
42.560,1123.000,41.000,148.050,35.300,2.643,10.682,-34.916,1.341,54.526,0.672,68.037,79.474
42.610,1120.000,44.000,148.050,35.300,2.643,10.682,-35.065,1.964,54.335,0.873,71.583,79.060
42.660,1122.000,44.000,159.050,35.243,2.306,10.677,-34.976,2.669,54.335,1.152,69.337,79.799
42.710,1122.000,44.000,159.050,35.243,2.306,10.677,-34.967,3.231,54.313,1.316,70.558,78.469
42.760,1127.500,42.000,154.050,35.243,2.306,10.712,-34.716,3.219,54.445,1.041,71.622,79.060
42.810,1128.500,42.000,154.050,34.767,-0.698,10.711,-34.376,2.194,54.335,0.466,70.282,78.952
42.860,1125.500,44.000,157.050,33.997,-2.878,10.713,-33.895,1.058,54.577,-0.211,71.149,87.876
42.910,1127.000,45.000,157.050,33.997,-2.878,10.713,-33.390,0.111,54.833,-0.498,14.593,79.572
42.960,1127.500,46.000,169.050,33.516,-6.849,10.715,-32.947,-0.969,54.921,-0.271,6.320,83.788
43.011,1127.500,46.000,169.050,33.516,-6.849,10.715,-33.158,-1.650,54.899,-0.219,24.719,82.498
43.060,1134.000,45.000,166.050,33.957,-7.479,10.711,-33.435,-1.916,54.745,-0.296,28.481,76.647
43.111,1137.000,45.000,166.050,33.957,-7.479,10.711,-33.823,-2.070,54.570,-0.065,66.441,79.435
43.161,1138.000,44.000,163.050,34.044,-8.742,10.714,-34.166,-2.434,54.394,0.406,69.100,80.873
43.210,1139.000,44.000,163.050,34.044,-8.742,10.715,-34.581,-2.387,54.372,0.299,65.633,78.903
43.260,1139.500,44.000,158.050,34.335,-6.049,10.714,-34.781,-1.852,54.394,0.222,69.376,80.272
43.310,1137.500,43.000,158.050,34.335,-6.049,10.714,-34.823,-0.930,54.379,0.273,66.461,80.016
43.360,1137.500,43.000,158.050,34.501,-3.430,10.713,-34.581,0.068,54.445,0.410,66.678,80.272
43.411,1135.500,44.000,158.050,34.501,-3.430,10.713,-34.414,0.807,54.526,0.428,66.500,80.932
43.460,1133.500,44.000,159.050,34.523,-1.328,10.714,-34.133,1.123,54.628,0.385,67.032,79.700
43.511,1135.000,44.000,159.050,34.523,-1.328,10.714,-33.806,1.246,54.672,0.256,67.052,80.459
43.560,1134.000,44.000,158.050,34.573,0.095,10.715,-33.795,1.377,54.665,0.273,65.909,80.085
43.610,1135.500,44.000,158.050,34.573,0.095,10.714,-33.828,1.517,54.650,0.359,65.968,79.464
43.660,1136.500,43.000,159.050,34.671,1.200,10.714,-33.845,1.578,54.628,0.355,65.220,80.912
43.710,1136.000,43.000,159.050,34.671,1.200,10.714,-34.056,1.558,54.548,0.359,65.023,80.104
43.761,1137.500,43.000,159.050,34.677,2.334,10.716,-34.274,1.418,54.504,0.291,66.185,80.035
43.811,1137.500,43.000,159.050,34.677,2.334,10.716,-34.386,1.353,54.467,0.321,65.180,84.576
43.861,1135.500,43.000,160.050,34.516,4.631,10.719,-34.516,1.320,54.467,0.368,17.312,79.503
43.910,1133.500,44.000,160.050,34.516,4.631,10.717,-34.502,1.845,54.401,0.235,7.009,84.054
43.961,1133.000,44.000,161.050,34.516,4.631,10.717,-34.390,2.850,54.430,0.351,25.408,82.094
44.010,1136.500,44.000,161.050,34.442,6.533,10.723,-34.251,3.252,54.504,0.811,13.687,79.632
44.060,1137.000,44.000,160.050,34.517,5.284,11.364,-34.189,3.244,54.474,0.795,70.085,84.606
44.111,1138.000,43.000,160.050,34.517,5.284,11.364,-34.089,2.674,54.401,0.513,71.819,75.918
44.160,1138.000,43.000,158.050,34.229,5.082,20.834,-34.006,2.103,54.438,0.016,88.346,79.336
44.211,1138.000,43.000,158.050,34.229,5.082,20.834,-33.995,1.328,54.679,-0.215,82.003,78.026
44.261,1137.500,43.000,156.050,34.325,4.460,21.538,-33.939,0.976,54.767,-0.241,86.968,79.297
44.310,1135.500,43.000,156.050,34.325,4.460,22.285,-33.790,0.857,54.723,-0.074,84.998,78.735
44.360,1135.000,43.000,157.050,34.685,3.966,22.287,-33.801,0.967,54.467,0.196,85.293,79.267
44.410,1134.000,43.000,157.050,34.685,3.966,22.295,-34.056,0.836,54.430,0.368,85.648,79.031
44.461,1132.500,44.000,157.050,34.531,3.967,22.338,-34.178,0.590,54.401,0.265,85.786,79.612
44.511,1130.000,44.000,157.050,34.531,3.967,22.338,-34.279,0.449,54.408,0.102,23.871,80.331
44.561,1131.500,44.000,160.050,34.494,3.737,22.384,-34.321,0.402,54.474,0.128,7.344,84.162
44.611,1131.500,44.000,160.050,34.494,3.737,22.384,-34.274,0.342,54.518,0.102,6.162,83.148
44.661,1132.500,44.000,161.050,34.511,3.752,22.404,-34.117,0.770,54.518,0.205,31.219,82.340
44.710,1133.500,44.000,161.050,34.511,3.752,22.410,-34.056,0.787,54.540,0.329,32.992,83.138
44.760,1133.500,44.000,162.050,34.445,4.002,22.414,-33.956,0.742,54.672,0.282,8.703,82.714
44.810,1134.500,44.000,162.050,34.445,4.002,22.426,-33.895,0.560,54.650,0.248,9.531,82.980
44.860,1135.000,44.000,163.050,34.445,4.002,22.426,-33.856,0.552,54.643,0.218,3.030,82.714
44.911,1135.000,44.000,163.050,34.445,4.083,22.432,-33.950,0.526,54.687,0.282,2.695,83.138
44.960,1140.000,43.000,161.050,34.513,4.180,22.213,-34.117,0.590,54.679,0.351,2.872,74.017
45.010,1139.500,43.000,161.050,34.513,4.180,22.213,-34.144,0.697,54.562,0.295,68.726,82.153
45.061,1136.500,43.000,159.050,34.458,4.273,20.899,-34.122,1.103,54.555,0.256,76.172,85.177
45.110,1135.500,44.000,159.050,34.458,4.273,20.894,-33.928,1.775,54.650,0.368,17.981,79.730
45.160,1133.500,44.000,158.050,34.446,4.277,21.727,-33.823,2.157,54.650,0.539,7.659,83.965
45.210,1134.500,44.000,158.050,34.446,4.277,21.729,-33.878,2.427,54.643,0.664,6.320,82.714
45.260,1133.000,44.000,158.050,34.425,4.400,21.729,-33.762,2.202,54.504,0.573,3.542,83.256
45.311,1126.000,47.000,158.050,34.425,4.400,21.729,-33.734,1.931,54.533,0.308,2.734,81.936
45.362,1113.000,57.000,184.050,34.342,4.283,21.730,-33.695,1.558,54.533,0.231,2.577,82.862
45.411,1115.500,59.000,184.050,34.342,4.283,21.730,-33.374,1.332,54.592,0.256,2.340,82.123
45.460,1121.500,58.000,207.050,34.342,4.283,21.730,-32.432,1.246,54.489,0.265,2.518,81.995
45.510,1125.000,58.000,207.050,32.864,4.195,21.730,-31.074,1.017,54.482,0.338,2.400,82.439
45.560,1127.500,58.000,204.050,30.378,4.183,21.730,-29.774,0.922,54.452,0.351,2.321,82.084
45.610,1128.000,58.000,204.050,30.378,4.183,21.730,-28.719,0.787,54.474,0.333,2.478,81.611
45.661,1127.500,60.000,206.050,29.249,4.018,21.730,-27.778,0.725,54.540,0.402,2.498,81.562
45.711,1127.500,60.000,206.050,29.249,4.018,21.730,-27.477,0.656,54.540,0.299,2.321,81.907
45.762,1130.500,60.000,208.050,30.024,3.838,21.730,-27.901,0.578,54.452,0.179,2.340,81.414
45.810,1132.000,60.000,208.050,30.024,3.838,21.730,-28.963,0.436,54.247,0.021,2.340,81.503
45.860,1136.000,59.000,208.050,29.718,3.840,21.693,-30.028,0.372,53.881,-0.048,2.321,80.902
45.910,1154.500,50.000,208.050,29.718,3.840,21.297,-30.825,0.449,53.479,0.025,2.380,78.115
45.960,1160.000,44.000,165.050,28.452,4.191,20.999,-31.169,0.639,52.944,0.256,48.200,76.992
46.010,1159.500,42.000,165.050,28.452,4.191,20.999,-30.739,1.017,52.717,0.565,64.688,75.051
46.061,1150.500,43.000,152.050,28.019,4.097,18.001,-29.779,0.713,52.542,0.807,74.971,83.955
46.110,1143.500,45.000,152.050,28.019,4.097,18.001,-28.809,0.556,52.337,0.939,16.130,80.173
46.160,1141.000,45.000,160.050,29.536,3.328,18.549,-28.482,0.239,52.300,0.992,6.714,82.882
46.210,1134.500,45.000,160.050,29.536,3.328,18.549,-29.162,-0.142,52.036,0.470,4.488,82.724
46.260,1131.000,47.000,167.050,32.347,1.750,18.547,-30.585,-1.230,51.531,-0.065,3.503,84.369
46.310,1126.500,49.000,167.050,32.347,1.750,18.547,-32.470,-2.177,50.740,-0.399,2.931,82.311
46.361,1124.000,52.000,175.050,32.347,1.750,18.545,-34.050,-1.560,50.023,-0.378,2.597,82.291
46.410,1124.500,54.000,175.050,32.788,1.536,18.539,-34.990,-0.198,49.540,-0.194,2.518,82.980
46.460,1127.500,54.000,191.050,31.385,3.984,18.538,-35.823,0.963,49.247,0.098,2.537,83.079
46.510,1131.000,53.000,191.050,31.385,3.984,18.538,-37.106,1.816,49.071,0.428,2.537,84.103
46.561,1125.500,58.000,196.050,31.637,6.370,18.538,-39.172,2.374,48.840,0.754,2.537,82.764
46.610,1119.000,63.000,196.050,31.637,6.370,18.538,-41.198,2.522,48.301,0.906,2.734,82.133
46.660,1115.000,70.000,231.050,32.202,6.945,18.538,-43.203,2.432,47.601,0.992,2.597,82.537
46.711,1116.500,72.000,231.050,32.202,6.945,18.538,-45.247,2.928,47.299,0.984,2.557,81.926
46.761,1123.000,71.000,245.050,32.202,6.945,18.538,-47.037,3.215,47.471,1.094,2.301,81.542
46.810,1123.000,71.000,245.050,36.142,6.615,18.538,-46.938,3.264,47.192,1.131,2.419,80.488
46.860,1125.000,72.000,234.050,39.775,6.670,18.538,-44.557,2.702,46.950,0.984,2.537,81.759
46.910,1125.000,72.000,234.050,39.775,6.670,18.538,-40.677,2.247,46.831,0.656,2.498,80.114
46.960,1125.500,73.000,242.050,40.159,7.066,18.538,-37.069,1.796,47.382,0.312,2.498,81.060
47.011,1126.000,74.000,242.050,40.159,7.066,18.538,-34.022,1.488,48.401,0.025,2.537,79.907
47.061,1121.500,78.000,255.050,41.737,5.950,18.537,-31.478,1.197,49.305,-0.061,2.262,79.513
47.110,1126.000,77.000,255.050,41.737,5.950,18.537,-30.839,0.623,49.554,-0.202,2.301,77.268
47.161,1126.000,78.000,264.050,45.151,4.928,18.545,-31.739,0.213,49.364,-0.374,16.307,80.222
47.210,1127.000,78.000,264.050,45.151,4.928,18.545,-34.128,-0.129,49.005,-0.468,8.624,80.695
47.260,1130.500,78.000,267.050,47.760,4.495,18.546,-36.595,-0.425,48.822,-0.553,8.093,79.622
47.311,1135.000,77.000,267.050,47.760,4.495,18.546,-39.529,-0.699,49.152,-0.553,7.541,79.632
47.360,1141.000,76.000,263.050,50.525,4.591,18.546,-41.938,-0.956,49.056,-0.386,7.502,79.543
47.410,1145.000,74.000,263.050,50.525,4.591,18.546,-42.941,-0.815,48.638,-0.048,7.935,79.484
47.461,1145.500,72.000,251.050,51.119,4.948,18.546,-42.207,-0.206,48.514,0.513,8.191,80.065
47.510,1144.500,71.000,251.050,51.119,4.948,18.546,-40.453,0.188,48.781,0.889,8.506,79.247
47.561,1137.000,73.000,249.050,51.065,6.159,18.547,-38.723,0.389,49.349,0.840,8.033,79.582
47.610,1133.000,74.000,249.050,51.065,6.159,18.547,-36.855,0.556,50.001,0.518,8.329,81.207
47.661,1127.500,76.000,254.050,53.710,6.466,18.547,-36.190,0.582,50.257,0.188,4.606,79.671
47.710,1129.000,76.000,254.050,53.710,6.466,18.547,-36.464,0.535,50.323,-0.224,3.325,80.548
47.760,1130.000,76.000,256.050,56.974,6.323,18.547,-37.261,0.449,50.177,-0.463,2.321,79.917
47.810,1132.500,75.000,256.050,56.974,6.323,18.547,-37.677,0.380,49.942,-0.275,1.946,80.114
47.860,1134.000,75.000,254.050,58.882,6.309,18.546,-37.346,0.548,49.723,0.128,2.143,81.385
47.911,1134.000,75.000,254.050,58.882,6.309,18.546,-36.455,0.742,49.818,0.623,1.946,80.479
47.960,1126.500,78.000,258.050,59.591,6.929,18.547,-35.386,1.090,50.155,0.951,1.927,80.616
48.010,1122.000,80.000,258.050,59.591,6.929,18.546,-35.028,1.402,50.557,1.017,1.927,79.454
48.060,1123.000,83.000,276.050,62.983,7.347,18.546,-35.195,1.304,50.858,0.721,1.907,79.632
48.110,1124.500,84.000,276.050,62.983,7.347,18.546,-35.609,0.971,50.894,0.286,2.104,80.508
48.161,1123.500,85.000,288.050,62.983,7.347,18.546,-36.357,0.513,50.704,-0.086,2.124,79.632
48.210,1125.000,87.000,288.050,65.240,6.918,18.546,-36.957,0.209,50.894,-0.258,2.065,81.473
48.260,1130.000,86.000,294.050,66.851,6.704,18.546,-37.757,0.128,51.194,-0.074,2.104,79.769
48.310,1135.000,85.000,294.050,66.851,6.704,18.546,-38.793,0.196,51.619,0.128,2.104,80.419
48.360,1141.500,84.000,289.050,70.433,7.962,18.546,-39.337,0.742,51.619,0.389,2.124,79.632
48.410,1140.000,84.000,289.050,70.433,7.962,18.546,-39.428,1.468,51.377,0.676,2.104,79.868
48.461,1137.500,84.000,287.050,71.524,8.606,18.546,-39.140,2.120,51.260,0.832,2.143,82.301
48.510,1135.500,84.000,287.050,71.524,8.606,18.546,-38.910,2.165,51.663,0.902,3.601,80.035
48.561,1141.000,83.000,285.050,73.416,8.350,18.546,-39.359,1.796,52.358,0.705,7.797,79.661
48.610,1143.000,82.000,285.050,73.416,8.350,18.546,-39.962,1.357,52.571,0.355,7.482,79.641
48.661,1142.500,80.000,270.050,75.824,7.408,18.546,-40.522,1.176,52.095,0.089,7.935,79.198
48.710,1139.000,81.000,270.050,75.824,7.408,18.546,-41.274,1.021,51.604,0.008,8.053,79.464
48.760,1137.000,81.000,273.050,76.834,7.382,18.546,-42.194,0.758,51.707,0.081,8.250,80.114
48.811,1137.000,81.000,273.050,76.834,7.382,18.546,-42.954,0.530,52.095,0.068,7.856,79.671
48.861,1139.000,80.000,271.050,79.472,7.768,18.546,-43.305,0.513,52.315,0.398,7.836,79.976
48.911,1140.000,79.000,271.050,79.472,7.768,18.546,-43.542,0.898,52.073,0.758,8.152,80.025
48.960,1136.000,79.000,272.050,80.876,9.849,18.546,-43.771,1.644,51.853,0.906,7.856,79.090
49.010,1136.000,79.000,272.050,80.876,9.849,18.546,-43.931,2.419,51.817,0.848,8.270,79.838
49.061,1129.000,82.000,276.050,81.647,9.816,18.546,-44.378,2.776,52.161,0.947,7.836,80.272
49.110,1128.000,83.000,276.050,81.647,9.816,18.546,-44.800,2.604,52.666,0.902,8.329,79.287
49.160,1142.000,80.000,278.050,84.609,8.693,18.547,-44.678,2.054,52.747,0.606,8.309,79.474
49.211,1174.000,61.000,278.050,84.609,8.693,18.547,-43.976,1.156,52.542,0.470,7.777,78.026
49.261,1183.000,51.000,197.050,88.384,7.192,18.547,-42.507,0.299,52.373,0.479,7.797,78.440
49.310,1173.500,50.000,197.050,88.384,7.192,18.547,-40.789,-0.039,52.395,0.586,8.211,79.907
49.360,1159.000,53.000,187.050,88.668,6.345,18.547,-40.383,-0.069,52.820,0.639,8.605,80.488
49.410,1144.500,59.000,187.050,88.668,6.345,18.547,-42.207,0.046,53.772,0.393,8.171,81.089
49.460,1131.000,63.000,214.050,87.184,5.607,18.547,-45.266,-0.168,54.160,-0.048,8.841,81.493
49.510,1130.500,65.000,214.050,87.184,5.607,18.547,-47.037,-0.763,53.581,-0.408,8.624,81.956
49.561,1137.000,63.000,219.050,87.657,5.866,18.547,-47.135,-1.050,52.622,-0.498,8.053,81.414
49.610,1139.500,62.000,219.050,87.657,5.866,18.547,-46.230,-0.763,52.300,-0.335,8.427,80.459
49.661,1112.000,74.000,218.050,87.683,7.947,18.547,-45.592,0.342,52.747,0.085,8.152,81.995
49.710,1100.000,89.000,218.050,87.683,7.947,18.547,-45.528,1.652,53.354,0.419,8.487,79.681
49.760,1104.500,90.000,296.050,88.055,8.960,18.547,-45.707,2.546,53.537,0.647,8.093,82.094
49.810,1104.500,90.000,296.050,88.055,8.960,18.547,-46.326,2.764,53.383,0.606,5.098,80.695
49.861,1124.000,87.000,298.050,90.974,8.105,18.547,-46.674,2.181,53.091,0.368,3.739,81.286
49.910,1135.500,83.000,298.050,90.974,8.105,18.547,-46.269,1.369,52.893,0.068,19.656,81.779
49.960,1145.000,81.000,279.050,93.809,8.004,18.547,-46.237,1.017,52.952,-0.116,21.547,81.858
50.010,1153.500,73.000,279.050,93.809,8.004,18.547,-46.288,1.090,53.039,-0.194,2.774,79.661
50.060,1153.500,71.000,248.050,94.061,8.395,18.547,-46.409,1.443,53.164,0.038,2.597,81.513
50.110,1148.500,70.000,248.050,94.061,8.395,18.547,-45.911,1.841,53.135,0.376,1.927,80.567
50.160,1144.000,72.000,247.050,93.363,8.345,18.547,-46.441,1.841,53.149,0.312,1.927,81.129
50.211,1144.000,72.000,247.050,93.363,8.345,18.547,-47.732,1.566,53.149,0.205,1.927,80.124
50.260,1138.000,74.000,253.050,95.816,7.481,18.547,-49.202,1.127,53.010,0.376,1.946,79.888
50.311,1139.000,74.000,253.050,95.816,7.481,18.547,-50.537,0.898,52.783,0.389,1.887,81.464
50.360,1140.000,73.000,252.050,100.620,6.991,18.547,-51.956,0.943,52.249,0.496,1.907,80.882
50.410,1140.000,73.000,252.050,100.620,6.991,18.547,-52.615,1.012,51.700,0.578,1.966,82.311
50.460,1139.000,73.000,251.050,105.172,6.992,18.547,-52.390,1.164,51.114,0.713,2.124,80.882
50.510,1141.500,72.000,251.050,105.172,6.992,18.547,-51.276,1.189,50.997,0.881,2.104,80.301
50.560,1147.000,68.000,243.050,106.547,6.866,18.547,-49.498,1.345,51.407,0.967,2.163,81.877
50.611,1143.500,68.000,243.050,106.547,6.866,18.547,-47.043,1.451,51.912,0.947,2.104,80.380
50.661,1135.500,70.000,235.050,107.920,6.291,18.547,-44.595,1.328,52.454,0.852,1.946,80.873
50.710,1127.500,72.000,235.050,107.920,6.291,18.547,-42.941,0.828,52.812,0.458,1.927,81.345
50.760,1119.000,79.000,252.050,110.880,5.607,18.547,-42.194,0.286,53.091,0.102,1.927,81.680
50.810,1121.500,81.000,252.050,110.880,5.607,18.547,-42.424,-0.236,53.383,-0.374,1.907,81.473
50.860,1125.500,81.000,268.050,115.141,5.689,18.547,-43.548,-0.481,53.244,-0.532,2.084,80.892
50.910,1131.000,78.000,268.050,115.141,5.689,18.547,-45.304,-0.292,52.886,-0.463,2.025,81.798
50.961,1132.500,78.000,267.050,119.508,6.211,18.547,-47.086,0.243,52.432,-0.082,2.143,82.301
51.011,1131.500,78.000,267.050,119.508,6.211,18.547,-48.765,0.967,51.663,0.415,2.222,82.764
51.060,1128.500,80.000,273.050,123.856,6.414,18.547,-50.014,1.578,51.209,0.914,2.321,83.108
51.110,1128.500,80.000,273.050,123.856,6.414,18.547,-50.999,1.833,50.887,1.131,2.143,82.320
51.161,1122.500,89.000,298.050,129.269,5.789,18.547,-51.551,1.632,50.755,1.131,2.124,83.207
51.210,1127.000,88.000,298.050,129.269,5.789,18.547,-50.870,1.193,50.872,1.008,2.124,82.271
51.261,1135.000,86.000,293.050,135.024,5.138,18.547,-48.562,0.754,51.121,0.844,2.104,82.468
51.310,1144.500,84.000,293.050,135.024,5.138,18.547,-44.972,0.602,51.480,0.627,2.124,83.256
51.360,1145.500,81.000,277.050,138.237,4.899,18.547,-41.427,0.639,52.124,0.462,2.143,82.508
51.410,1146.500,78.000,277.050,138.237,4.899,18.547,-39.086,0.717,52.761,0.321,2.124,82.862
51.460,1139.500,80.000,267.050,139.775,4.486,18.547,-38.467,0.717,53.200,0.055,2.084,82.517
51.511,1139.500,80.000,267.050,139.775,4.486,18.547,-39.930,0.543,53.171,-0.481,2.124,81.995
51.561,1131.000,82.000,275.050,142.050,4.359,18.547,-43.114,0.398,52.644,-0.708,2.163,81.542
51.611,1138.000,81.000,275.050,142.050,4.359,18.547,-46.384,0.522,51.831,-0.545,2.143,83.305
51.660,1152.500,73.000,257.050,144.104,4.630,18.547,-48.716,1.041,51.297,-0.022,2.124,82.281
51.710,1166.000,62.000,257.050,144.104,4.630,18.547,-49.910,1.652,51.121,0.631,2.104,82.212
51.760,1165.500,58.000,206.050,147.681,4.496,18.547,-50.340,2.095,51.297,1.328,2.104,83.650
51.810,1157.500,59.000,206.050,147.681,4.496,18.547,-49.024,2.321,51.619,1.603,2.143,82.389
51.861,1151.000,59.000,205.050,150.205,4.370,18.547,-46.409,2.345,51.809,1.435,2.163,81.769
51.911,1151.000,59.000,205.050,150.205,4.370,18.547,-43.222,1.984,52.256,0.869,2.222,82.330
51.960,1137.500,63.000,217.050,150.205,4.370,18.547,-40.293,1.324,52.893,0.119,2.143,82.675
52.010,1123.000,69.000,217.050,150.689,3.715,18.547,-38.467,0.688,53.625,-0.562,2.143,82.892
52.060,1109.000,82.000,259.050,150.689,3.715,18.547,-37.522,0.222,54.086,-1.132,2.143,82.695
52.110,1109.000,82.000,259.050,151.349,3.119,18.547,-37.757,-0.074,54.240,-1.466,2.006,82.498
52.160,1114.500,88.000,298.050,152.557,2.616,18.547,-38.601,-0.074,54.160,-1.355,2.183,81.897
52.211,1125.500,84.000,298.050,152.557,2.616,18.547,-40.047,0.149,54.050,-0.828,2.163,81.680
52.260,1141.000,79.000,277.050,153.406,2.781,18.547,-41.740,0.639,53.867,-0.074,2.084,82.163
52.310,1150.000,75.000,277.050,153.406,2.781,18.547,-43.254,1.021,53.515,0.530,2.124,81.513
52.360,1150.000,75.000,277.050,153.406,2.781,18.547,-44.161,1.246,53.244,1.041,2.203,81.326
52.410,1156.500,65.000,238.050,154.511,2.863,18.547,-44.410,1.238,52.959,1.361,2.340,82.084
52.460,1153.500,64.000,225.050,155.627,2.799,18.547,-44.033,1.131,52.973,1.259,2.006,81.473
52.510,1153.500,64.000,225.050,155.627,2.799,18.547,-43.139,1.082,53.266,0.820,1.769,81.877
52.560,1143.500,65.000,220.050,154.868,2.548,18.547,-41.779,0.963,53.742,0.526,2.065,81.119
52.611,1139.500,66.000,220.050,154.868,2.548,18.547,-40.506,0.852,54.284,0.333,2.143,82.054
52.661,1134.500,66.000,226.050,153.974,2.612,18.547,-39.978,0.643,54.650,0.068,2.084,81.680
52.710,1128.500,68.000,226.050,153.974,2.612,18.547,-39.935,0.453,54.877,-0.211,2.104,81.601
52.760,1122.500,74.000,240.050,153.209,2.834,18.547,-40.021,0.389,54.958,-0.224,2.124,82.448
52.810,1123.000,76.000,240.050,153.209,2.834,18.547,-40.181,0.530,55.075,-0.078,2.222,80.882
52.861,1125.500,77.000,262.050,153.209,2.834,18.547,-40.223,0.783,55.111,0.273,2.104,82.311
52.910,1129.000,76.000,262.050,152.665,3.264,18.547,-39.807,1.131,55.243,0.518,2.124,82.320
52.960,1135.500,75.000,258.050,152.703,3.494,18.547,-39.060,1.365,55.470,0.713,2.124,81.759
53.010,1143.500,73.000,258.050,152.703,3.494,18.547,-38.056,1.398,55.573,0.729,2.084,83.049
53.060,1157.500,63.000,237.050,152.937,3.536,18.547,-37.055,1.259,55.895,0.539,2.124,80.488
53.111,1165.000,56.000,237.050,152.937,3.536,18.547,-36.367,1.025,56.085,0.243,7.147,80.922
53.161,1165.500,53.000,198.050,152.909,3.372,18.858,-35.967,0.754,56.459,-0.065,19.991,80.488
53.210,1161.500,51.000,198.050,152.909,3.372,18.858,-35.976,0.639,56.524,-0.224,30.549,81.454
53.262,1155.500,51.000,187.050,152.909,3.372,16.885,-36.185,0.770,56.654,-0.159,34.509,79.878
53.311,1150.500,52.000,187.050,153.148,2.965,15.180,-36.450,1.049,56.671,-0.056,51.509,79.691
53.360,1145.000,54.000,189.050,153.730,3.370,22.530,-36.553,1.316,56.548,0.016,61.792,79.720
53.410,1142.500,54.000,189.050,153.730,3.370,22.530,-36.581,1.246,56.451,0.166,68.372,79.011
53.460,1141.000,53.000,189.050,153.722,3.061,17.778,-36.650,0.967,56.491,0.492,69.888,78.912
53.511,1141.000,53.000,189.050,153.722,3.061,17.778,-36.711,0.820,56.491,0.522,69.810,79.740
53.560,1139.000,54.000,189.050,153.722,3.061,16.447,-36.767,0.762,56.703,0.513,69.514,79.385
53.610,1136.000,54.000,189.050,153.459,2.984,15.542,-36.878,0.742,56.736,0.291,71.366,79.405
53.660,1136.000,54.000,189.050,153.459,2.984,15.774,-36.920,0.615,56.858,0.153,25.093,81.700
53.710,1137.000,54.000,191.050,153.414,2.896,15.762,-37.060,0.602,56.948,-0.142,8.132,84.950
53.761,1141.000,53.000,190.050,153.332,2.513,15.761,-37.261,0.500,56.964,-0.326,5.157,83.128
53.811,1141.000,53.000,190.050,153.332,2.513,15.761,-37.304,0.453,56.988,-0.129,4.094,82.911
53.861,1140.500,53.000,188.050,153.577,2.894,15.761,-37.405,0.701,56.980,0.166,13.392,83.315
53.910,1141.500,52.000,188.050,153.577,2.894,15.761,-37.618,0.861,56.939,0.342,4.172,81.976
53.960,1142.000,52.000,187.050,153.691,2.651,15.761,-37.976,0.918,56.817,0.475,3.168,83.424
54.010,1144.500,51.000,187.050,153.691,2.651,15.761,-38.206,0.787,56.728,0.466,2.734,80.932
54.060,1144.500,50.000,182.050,153.691,2.651,15.761,-38.430,0.754,56.671,0.333,18.513,80.902
54.111,1146.000,48.000,182.050,153.694,3.818,15.762,-38.526,1.029,56.728,0.171,36.203,80.932
54.161,1144.000,48.000,176.050,153.924,6.966,15.762,-38.579,1.755,56.801,0.196,52.908,79.888
54.211,1142.000,49.000,176.050,153.924,6.966,15.762,-38.398,2.604,56.858,0.166,63.624,79.454
54.260,1139.000,50.000,178.050,154.028,6.659,15.761,-38.104,3.486,56.809,0.368,67.958,80.016
54.310,1137.000,50.000,178.050,154.028,6.659,15.762,-38.040,3.756,56.809,0.573,67.899,79.829
54.360,1136.500,50.000,181.050,154.028,6.659,15.762,-38.061,3.502,56.866,0.556,67.505,80.892
54.410,1136.500,50.000,181.050,153.677,3.519,15.762,-38.051,2.378,56.866,0.162,69.908,80.163
54.461,1135.500,51.000,182.050,153.677,3.519,15.762,-38.131,0.770,56.972,-0.232,69.731,79.671
54.510,1137.500,50.000,182.050,153.337,0.515,15.762,-38.158,-0.536,57.143,-0.365,66.737,80.232
54.560,1145.500,49.000,178.050,153.337,0.515,15.761,-38.206,-0.879,57.135,-0.185,64.471,78.065
54.610,1145.500,49.000,178.050,153.479,-1.456,15.417,-38.184,-0.511,56.956,0.089,106.470,75.652
54.660,1153.500,39.000,144.050,153.479,-1.456,11.666,-38.206,-0.001,56.834,0.321,107.967,77.012
54.710,1153.500,39.000,144.050,153.805,-3.172,11.434,-38.286,0.175,56.785,0.518,113.246,78.184
54.760,1143.500,40.000,144.050,153.723,-3.038,12.075,-38.462,-0.074,56.793,0.522,113.266,76.627
54.811,1143.500,40.000,144.050,153.723,-3.038,12.075,-38.499,-0.382,56.842,0.192,117.107,77.140
54.861,1137.500,41.000,149.050,153.472,-3.902,10.041,-38.430,-0.665,56.988,-0.074,116.457,77.849
54.910,1133.000,41.000,149.050,153.472,-3.902,10.041,-38.131,-0.626,57.111,0.072,113.758,77.199
54.960,1115.500,54.000,171.050,153.739,-4.178,3.549,-37.848,-0.236,57.078,0.278,115.630,77.642
55.010,1115.500,54.000,171.050,153.739,-4.178,3.549,-37.757,0.586,57.070,0.398,115.827,76.765
55.060,1128.500,53.000,195.050,153.357,-5.070,4.635,-38.152,1.082,56.711,0.505,116.201,77.809
55.110,1132.000,52.000,195.050,153.357,-5.070,4.635,-38.702,1.189,56.443,0.466,115.886,77.238
55.160,1130.500,53.000,185.050,152.135,-5.809,5.096,-39.198,1.008,56.508,0.333,115.334,76.815
55.211,1130.500,53.000,185.050,152.135,-5.809,5.096,-39.273,0.766,56.720,0.243,115.827,77.849
55.260,1126.500,59.000,204.050,151.029,-7.097,2.618,-39.102,0.556,56.793,0.248,115.295,76.805
55.310,1129.000,59.000,204.050,151.029,-7.097,2.618,-39.086,0.458,56.923,0.385,114.920,77.642
55.360,1128.000,60.000,205.050,149.439,-8.449,356.197,-39.471,0.639,56.817,0.513,114.999,77.189
55.410,1131.000,59.000,205.050,149.439,-8.449,356.197,-39.391,0.791,56.565,0.526,115.689,77.218
55.461,1129.500,59.000,205.050,144.615,-10.469,354.679,-38.270,0.762,56.606,0.475,114.251,77.632
55.510,1129.500,59.000,205.050,144.615,-10.469,354.679,-36.604,0.643,56.891,0.226,113.561,76.893
55.560,1128.500,60.000,205.050,140.127,-12.283,354.297,-35.158,0.415,57.624,-0.061,109.937,78.312
55.610,1124.500,62.000,205.050,140.127,-12.283,354.297,-34.122,0.359,58.300,-0.434,107.395,77.406
55.661,1124.000,64.000,214.050,140.127,-12.283,353.763,-33.778,0.492,58.544,-0.635,109.227,76.943
55.710,1124.000,64.000,214.050,137.839,-13.414,353.983,-34.716,0.844,58.528,-0.712,108.380,77.425
55.761,1127.500,64.000,219.050,136.998,-14.395,348.362,-36.232,1.435,58.178,-0.609,105.839,77.258
55.811,1128.000,65.000,219.050,136.998,-14.395,349.553,-38.163,1.652,57.347,-0.296,103.160,77.868
55.860,1129.000,65.000,224.050,136.998,-14.395,349.553,-40.373,1.943,56.597,0.209,103.121,77.228
55.910,1132.000,65.000,224.050,136.722,-15.528,350.665,-42.820,2.243,55.836,0.857,104.047,77.563
55.960,1132.000,65.000,224.050,134.543,-17.511,349.299,-44.825,2.550,55.045,1.316,102.155,77.218
56.010,1139.500,64.000,222.050,134.543,-17.511,349.299,-44.959,2.665,54.430,1.706,101.762,76.017
56.060,1144.000,61.000,220.050,130.416,-20.123,346.665,-43.906,2.723,54.621,1.825,99.614,77.031
56.111,1147.500,58.000,220.050,130.416,-20.123,346.665,-42.302,2.592,55.441,1.591,100.048,75.997
56.162,1149.000,56.000,203.050,128.267,-22.588,345.280,-40.853,2.087,56.630,1.066,100.717,75.406
56.211,1145.500,57.000,203.050,128.267,-22.588,345.280,-40.277,1.451,57.453,0.410,99.595,75.416
56.261,1142.000,57.000,202.050,128.471,-24.726,344.494,-40.138,0.828,57.493,-0.382,100.501,75.436
56.310,1142.000,57.000,202.050,128.471,-24.726,344.494,-39.978,0.368,57.078,-0.798,101.604,75.367
56.361,1133.000,59.000,202.050,127.599,-26.465,344.490,-39.764,0.291,56.695,-0.729,100.225,75.869
56.410,1128.000,60.000,202.050,127.599,-26.465,344.490,-39.311,0.647,56.687,-0.309,98.787,75.820
56.460,1124.000,63.000,208.050,124.014,-28.080,340.228,-38.473,0.844,56.948,0.171,98.314,76.263
56.510,1125.000,64.000,208.050,124.014,-28.080,340.228,-37.885,0.922,57.249,0.656,99.023,75.889
56.561,1126.000,65.000,216.050,121.013,-30.525,343.203,-38.056,0.762,57.469,0.779,94.729,77.258
56.611,1129.500,64.000,216.050,121.013,-30.525,343.203,-38.328,0.308,57.461,0.627,92.365,77.632
56.661,1132.000,63.000,220.050,119.659,-32.336,340.839,-38.958,0.042,57.322,0.213,90.671,77.238
56.710,1136.500,62.000,220.050,119.659,-32.336,340.839,-40.015,-0.022,57.371,-0.056,90.178,77.868
56.760,1139.500,61.000,216.050,119.313,-32.781,337.943,-40.853,0.231,57.469,-0.134,89.213,78.036
56.810,1141.000,61.000,216.050,119.313,-32.781,337.943,-41.459,0.807,57.477,-0.176,91.104,78.735
56.861,1143.500,60.000,213.050,119.313,-32.781,336.896,-41.606,1.230,57.176,-0.048,94.729,78.430
56.910,1143.500,60.000,213.050,118.591,-33.055,335.420,-41.709,1.607,56.988,0.410,94.039,79.119
56.961,1158.000,49.000,190.050,117.093,-34.028,333.337,-41.638,1.845,56.964,0.746,89.883,78.597
57.010,1169.000,41.000,190.050,117.093,-34.028,333.337,-41.166,1.984,56.931,0.914,90.159,79.050
57.061,1163.500,39.000,148.050,117.093,-34.028,334.792,-40.971,2.050,57.119,0.725,88.839,78.627
57.111,1155.500,40.000,148.050,116.689,-34.733,335.080,-41.019,2.177,57.428,0.610,78.418,80.764
57.160,1151.000,40.000,150.050,118.178,-36.517,332.011,-41.983,2.358,57.575,0.762,75.404,78.853
57.210,1145.500,42.000,150.050,118.178,-36.517,332.011,-42.979,2.112,57.233,1.078,74.498,80.075
57.260,1141.000,43.000,158.050,118.660,-36.962,329.708,-42.737,1.554,56.785,0.967,70.381,79.563
57.310,1142.000,43.000,158.050,118.660,-36.962,329.708,-42.041,1.053,56.638,0.643,76.212,79.277
57.360,1139.000,43.000,157.050,117.547,-36.912,335.263,-41.523,1.226,57.045,0.840,76.192,79.425
57.411,1140.500,43.000,157.050,117.547,-36.912,335.263,-40.480,1.775,57.485,1.053,71.720,78.922
57.461,1139.000,43.000,157.050,115.268,-37.190,334.537,-39.567,2.276,57.909,1.037,74.498,78.834
57.510,1137.000,43.000,157.050,115.268,-37.190,334.537,-39.519,2.222,57.787,0.701,75.247,80.104
57.561,1127.500,46.000,160.050,114.224,-37.627,332.782,-39.924,1.796,57.746,0.218,74.636,79.050
57.610,1122.000,53.000,160.050,114.224,-37.627,332.782,-41.268,1.492,57.754,-0.228,77.118,78.568
57.661,1121.000,56.000,190.050,114.242,-37.211,333.761,-43.031,1.673,57.624,-0.134,75.266,79.651
57.710,1123.000,57.000,190.050,114.242,-37.211,333.761,-44.270,2.345,57.233,0.231,74.951,78.952
57.760,1129.500,55.000,198.050,112.009,-36.661,333.410,-44.084,3.194,56.508,0.668,74.478,79.622
57.811,1131.500,55.000,198.050,112.009,-36.661,333.410,-43.848,3.826,56.334,1.041,74.734,79.474
57.861,1134.000,55.000,194.050,109.668,-36.319,331.621,-43.305,4.023,56.638,1.160,75.030,79.661
57.910,1134.500,55.000,194.050,109.668,-36.319,331.621,-42.973,3.806,57.200,0.967,75.857,80.252
57.960,1133.000,55.000,195.050,108.872,-36.083,332.969,-42.801,3.506,57.616,0.693,73.080,79.100
58.010,1130.500,56.000,195.050,108.872,-36.083,332.969,-42.743,3.354,57.559,0.376,74.754,79.927
58.060,1127.500,58.000,202.050,108.872,-36.083,333.820,-42.641,3.527,57.322,0.209,74.557,79.277
58.110,1126.000,61.000,202.050,108.817,-36.176,333.890,-42.417,3.760,57.127,0.201,72.784,79.159
58.160,1125.500,62.000,215.050,106.542,-37.053,333.188,-42.092,3.797,57.151,0.453,76.960,79.405
58.210,1125.000,64.000,215.050,106.542,-37.053,333.188,-41.632,3.674,57.159,0.656,77.157,79.356
58.260,1130.000,63.000,214.050,106.542,-37.053,332.442,-41.281,3.256,57.493,0.643,75.916,79.011
58.311,1132.500,62.000,214.050,102.630,-38.336,333.261,-41.204,2.760,57.656,0.573,75.069,79.267
58.361,1136.000,61.000,212.050,99.666,-39.827,344.164,-41.536,2.341,57.664,0.475,74.833,80.055
58.410,1140.000,60.000,212.050,99.666,-39.827,344.164,-42.405,2.030,57.648,0.333,75.365,79.819
58.461,1141.000,59.000,206.050,99.666,-39.827,343.212,-43.171,1.763,57.445,0.325,75.050,79.503
58.510,1141.500,58.000,206.050,97.866,-40.844,342.648,-43.835,1.648,57.208,0.376,75.719,80.252
58.560,1138.500,58.000,205.050,97.866,-40.844,341.483,-44.001,1.624,56.866,0.398,77.906,78.981
58.610,1138.500,58.000,205.050,95.086,-41.604,338.880,-43.682,1.382,56.703,0.526,80.033,78.981
58.660,1139.000,58.000,205.050,91.226,-43.066,334.470,-43.235,0.939,56.850,0.602,79.305,80.262
58.711,1139.000,58.000,205.050,91.226,-43.066,334.470,-42.590,0.598,57.078,0.680,75.700,79.139
58.760,1145.500,54.000,197.050,88.058,-44.033,331.895,-42.002,0.299,57.208,0.586,76.921,79.464
58.811,1145.500,54.000,197.050,88.058,-44.033,330.797,-41.740,-0.095,57.396,0.423,76.606,79.425
58.861,1142.500,54.000,194.050,88.058,-44.033,330.797,-41.964,-0.374,57.379,-0.009,73.631,79.228
58.910,1142.500,54.000,194.050,86.472,-45.295,328.992,-42.398,-0.716,57.216,-0.048,75.306,79.641
58.960,1141.500,53.000,191.050,84.411,-45.546,326.940,-42.641,-1.003,57.005,0.025,73.296,79.218
59.010,1142.000,53.000,191.050,84.411,-45.546,326.940,-42.392,-1.033,56.956,0.153,73.671,79.464
59.060,1142.000,53.000,191.050,84.411,-45.546,327.535,-42.079,-0.823,57.111,0.380,73.868,79.986
59.111,1141.500,53.000,189.050,81.667,-44.818,327.500,-41.689,-0.446,57.412,0.548,73.139,79.651
59.161,1141.000,52.000,185.050,79.853,-44.290,327.383,-41.600,-0.215,57.453,0.569,72.449,79.691
59.210,1144.500,49.000,185.050,79.853,-44.290,327.383,-41.734,-0.168,57.396,0.513,72.508,79.641
59.261,1142.500,49.000,175.050,79.853,-44.290,326.449,-42.156,-0.155,57.347,0.355,75.384,79.888
59.310,1142.500,49.000,175.050,78.914,-43.906,325.641,-42.679,0.046,57.241,0.256,73.218,79.050
59.360,1140.000,48.000,171.050,78.080,-43.482,326.476,-42.986,0.278,57.241,0.231,73.572,80.065
59.410,1139.500,48.000,171.050,78.080,-43.482,326.476,-42.941,0.573,57.159,0.359,74.124,79.247
59.461,1138.000,48.000,173.050,78.080,-43.482,327.309,-42.890,0.738,57.135,0.578,79.679,78.912
59.511,1138.000,48.000,173.050,77.563,-42.692,325.361,-42.596,0.889,57.094,0.569,78.477,79.415
59.560,1135.500,49.000,174.050,77.367,-42.500,323.141,-42.258,1.066,57.306,0.543,81.570,80.006
59.610,1137.000,48.000,174.050,77.367,-42.500,323.141,-42.360,1.209,57.355,0.552,76.960,79.257
59.660,1136.000,49.000,175.050,77.105,-42.855,321.536,-42.360,1.304,57.249,0.548,68.963,81.562
59.710,1133.500,49.000,175.050,77.105,-42.855,321.536,-42.392,1.254,57.192,0.380,49.756,82.813
59.761,1133.000,50.000,178.050,76.608,-42.946,321.471,-42.315,1.168,57.168,0.231,24.068,82.705
59.810,1133.000,50.000,178.050,76.608,-42.946,321.471,-42.334,1.259,57.273,0.286,15.677,84.330
59.861,1132.000,51.000,181.050,75.645,-45.179,321.472,-42.730,1.435,57.339,0.552,27.102,82.123
59.910,1132.000,51.000,181.050,75.645,-45.179,321.472,-43.229,0.976,57.119,0.709,17.548,82.744
59.960,1133.000,52.000,185.050,75.599,-45.602,321.472,-43.299,0.299,56.899,0.522,27.693,82.724
60.010,1133.000,52.000,185.050,75.599,-45.602,321.472,-43.139,-0.056,56.850,0.453,4.901,83.030
60.060,1132.000,52.000,186.050,75.339,-45.139,321.472,-42.520,0.136,57.102,0.402,3.148,82.833
60.110,1130.500,53.000,186.050,75.339,-45.139,321.472,-41.843,0.560,57.510,0.518,4.724,82.616
60.160,1132.000,53.000,187.050,75.518,-44.960,321.473,-41.504,0.869,57.599,0.543,2.892,83.039
60.210,1131.500,53.000,187.050,75.518,-44.960,321.473,-41.491,0.795,57.567,0.479,2.321,82.488
60.260,1131.000,53.000,186.050,75.865,-44.686,321.472,-41.779,0.651,57.461,0.252,2.104,83.739
60.311,1131.000,53.000,186.050,75.865,-44.686,321.472,-42.366,0.651,57.388,0.162,10.831,76.647
60.361,1135.500,52.000,184.050,75.435,-46.270,321.472,-42.967,0.799,57.216,0.380,62.344,79.405
60.410,1135.500,52.000,184.050,75.435,-46.270,321.472,-44.563,0.791,56.972,1.021,73.355,79.641
60.461,1138.500,51.000,181.050,74.405,-47.133,321.471,-45.279,-0.391,56.589,1.135,70.736,80.469
60.511,1138.500,51.000,181.050,74.405,-47.133,321.471,-43.969,-1.689,56.363,0.415,66.815,79.287
60.560,1141.000,50.000,181.050,74.219,-43.265,321.471,-42.334,-2.134,56.891,0.025,74.478,80.055
60.610,1141.000,50.000,181.050,74.219,-43.265,321.471,-40.778,-1.397,57.770,0.153,70.755,80.459
60.660,1138.500,50.000,180.050,74.219,-43.265,321.471,-39.471,0.072,58.422,0.132,68.982,79.691
60.711,1138.500,50.000,180.050,75.537,-38.585,321.470,-38.734,1.496,58.536,0.410,70.342,80.676
60.760,1133.500,51.000,183.050,77.196,-35.509,321.470,-39.247,2.325,58.161,0.351,68.963,79.366
60.810,1128.500,52.000,183.050,77.196,-35.509,321.470,-40.357,2.386,57.550,0.303,69.691,79.070
60.861,1127.500,54.000,188.050,77.196,-35.509,321.325,-42.073,2.058,57.094,0.231,77.551,74.894
60.910,1126.500,57.000,188.050,77.283,-32.862,322.639,-43.650,1.923,56.850,0.423,108.873,78.853
60.960,1126.500,57.000,188.050,77.283,-32.862,324.238,-44.302,2.103,56.793,0.590,108.597,77.849
61.010,1125.000,59.000,201.050,76.629,-29.921,325.909,-44.480,2.358,56.671,1.082,119.372,77.169
61.060,1129.000,58.000,202.050,75.266,-27.907,326.694,-44.123,2.633,56.459,1.336,117.797,76.519
61.110,1129.000,58.000,202.050,75.266,-27.907,326.694,-43.937,2.526,56.557,1.242,121.638,76.657
61.161,1131.000,58.000,201.050,74.259,-26.332,323.420,-43.867,1.927,56.752,0.844,121.815,77.218
61.210,1130.500,58.000,201.050,74.259,-26.332,323.420,-43.842,1.279,57.086,0.376,122.170,78.046
61.260,1130.500,58.000,202.050,74.069,-24.493,321.715,-43.784,0.893,57.412,0.132,122.603,77.051
61.310,1123.500,62.000,202.050,74.069,-24.493,321.715,-43.497,0.955,57.184,0.076,121.421,77.228
61.360,1117.500,66.000,216.050,74.007,-22.339,319.224,-43.126,1.193,57.216,0.252,121.835,76.627
61.410,1116.000,72.000,216.050,74.007,-22.339,319.224,-42.583,1.583,57.045,0.543,120.653,76.598
61.460,1117.000,74.000,246.050,72.981,-20.379,317.087,-42.213,1.722,57.062,0.754,120.357,77.248
61.511,1120.500,74.000,246.050,72.981,-20.379,317.087,-41.843,1.747,57.151,0.750,121.007,77.888
61.560,1126.000,73.000,250.050,70.416,-18.359,312.929,-41.542,1.509,57.404,0.590,120.436,78.390
61.611,1130.500,73.000,250.050,70.416,-18.359,312.929,-41.638,1.254,57.420,0.445,119.432,76.519
61.660,1130.500,73.000,250.050,70.416,-18.359,307.145,-41.913,1.246,57.559,0.209,117.304,76.608
61.710,1134.000,72.000,246.050,68.741,-16.105,304.828,-42.603,1.357,57.428,0.119,119.254,76.194
61.761,1134.000,72.000,246.050,67.850,-13.912,305.519,-43.369,1.628,57.282,0.119,119.471,76.755
61.811,1127.000,74.000,246.050,67.850,-13.912,305.519,-43.957,1.902,57.102,0.243,117.974,76.992
61.860,1123.000,77.000,258.050,67.850,-13.912,304.110,-44.289,2.116,56.809,0.492,117.934,76.086
61.910,1117.500,83.000,258.050,66.369,-11.987,302.759,-44.084,2.194,56.418,0.701,114.980,76.027
61.960,1120.000,84.000,274.050,63.283,-10.108,300.048,-43.069,2.067,56.508,0.857,114.448,75.544
62.011,1125.000,82.000,274.050,63.283,-10.108,300.048,-41.466,1.825,56.842,0.840,114.389,75.958
62.060,1127.500,81.000,273.050,59.662,-8.172,299.814,-40.037,1.755,57.086,0.803,114.645,75.012
62.110,1133.500,80.000,273.050,59.662,-8.172,299.814,-39.092,1.644,57.526,0.623,113.876,74.579
62.160,1135.500,79.000,273.050,57.383,-6.720,299.449,-38.803,1.501,57.876,0.351,112.852,73.801
62.210,1135.500,79.000,273.050,57.383,-6.720,299.449,-39.295,1.172,57.705,-0.014,113.955,74.047
62.260,1140.000,78.000,269.050,55.446,-5.438,298.818,-40.335,0.930,57.453,-0.236,114.093,75.564
62.311,1140.000,78.000,269.050,55.446,-5.438,298.818,-41.574,1.033,57.013,-0.318,113.285,76.204
62.361,1142.000,77.000,266.050,52.500,-3.839,294.307,-42.660,1.365,56.606,-0.146,112.872,75.012
62.411,1144.000,75.000,266.050,52.500,-3.839,294.307,-43.056,1.751,56.290,0.351,111.690,75.189
62.461,1145.000,74.000,258.050,49.393,-2.201,291.027,-43.139,2.099,56.210,0.668,111.788,74.195
62.510,1144.500,73.000,258.050,49.393,-2.201,291.027,-43.241,1.968,56.210,0.803,112.517,74.234
62.560,1142.000,73.000,251.050,47.150,-1.282,288.460,-43.803,1.648,56.254,0.770,112.399,75.948
62.611,1141.500,73.000,251.050,47.150,-1.282,288.460,-44.634,1.201,56.378,0.594,109.385,75.436
62.662,1138.500,74.000,252.050,47.150,-1.282,287.188,-45.707,0.680,56.202,0.192,110.193,75.652
62.711,1138.000,74.000,252.050,45.238,-0.332,286.234,-46.710,0.406,55.836,-0.091,108.617,76.342
62.760,1135.000,74.000,252.050,43.092,0.957,284.611,-47.449,0.402,55.595,-0.134,106.765,76.194
62.811,1136.500,74.000,252.050,43.092,0.957,284.611,-48.015,0.560,55.272,0.106,107.258,76.913
62.861,1133.500,75.000,252.050,43.092,0.957,282.943,-48.790,0.783,55.082,0.368,105.839,75.721
62.910,1133.500,75.000,252.050,40.852,2.359,285.569,-49.473,0.926,54.723,0.488,105.623,75.958
62.960,1132.000,75.000,252.050,40.852,2.359,283.323,-50.217,0.914,54.540,0.548,107.021,77.445
63.010,1132.000,75.000,252.050,39.121,3.473,287.336,-51.183,0.791,54.452,0.509,104.244,76.529
63.061,1131.500,75.000,252.050,39.121,3.473,289.151,-52.000,0.803,54.291,0.518,103.239,77.721
63.110,1132.500,75.000,254.050,37.200,4.469,288.435,-52.796,0.918,54.064,0.351,102.549,76.549
63.160,1133.000,75.000,256.050,35.017,5.446,289.802,-53.150,0.955,53.881,0.231,104.165,75.800
63.210,1133.000,75.000,256.050,35.017,5.446,289.802,-53.222,1.041,53.647,0.248,101.466,77.465
63.260,1145.000,71.000,252.050,33.065,6.434,287.185,-53.324,1.135,53.691,0.252,99.890,76.785
63.310,1162.000,62.000,252.050,33.065,6.434,287.185,-53.816,1.000,53.698,0.295,100.777,76.864
63.360,1174.500,50.000,196.050,30.747,7.156,286.036,-54.836,0.992,53.618,0.406,102.077,76.795
63.410,1178.000,43.000,196.050,30.747,7.156,286.036,-56.493,1.012,53.427,0.389,105.524,77.721
63.460,1174.500,40.000,154.050,30.747,7.156,287.775,-58.671,1.205,53.032,0.141,106.903,77.435
63.511,1174.500,40.000,154.050,28.606,7.999,288.056,-60.278,1.414,52.827,0.025,106.962,77.238
63.560,1156.500,41.000,155.050,27.798,9.504,287.343,-59.598,1.738,52.703,0.008,104.657,76.558
63.611,1158.500,39.000,155.050,27.798,9.504,287.343,-56.804,2.190,52.783,0.149,103.987,76.007
63.660,1158.000,36.000,144.050,27.798,9.504,286.183,-53.107,2.489,53.142,0.136,104.795,77.002
63.710,1158.000,36.000,144.050,26.653,11.369,285.785,-50.193,2.501,53.669,0.029,102.806,76.716
63.760,1144.500,40.000,149.050,25.837,12.349,281.648,-48.033,2.350,54.152,-0.022,104.500,76.490
63.810,1137.000,42.000,149.050,25.837,12.349,281.648,-46.809,2.210,54.423,-0.082,101.801,77.799
63.861,1127.000,47.000,164.050,25.078,12.764,286.146,-46.637,2.034,54.474,-0.506,101.565,76.854
63.911,1127.000,47.000,164.050,25.078,12.764,286.146,-47.387,1.960,54.343,-0.793,98.176,77.268
63.961,1131.500,52.000,181.050,25.484,13.398,284.103,-48.476,2.087,54.284,-0.729,96.916,76.283
64.011,1131.500,52.000,181.050,25.484,13.398,284.103,-49.614,2.337,54.211,-0.391,95.162,76.558
64.060,1132.500,51.000,181.050,25.484,13.398,282.999,-51.005,2.501,54.094,0.213,95.596,77.780
64.110,1139.000,49.000,177.050,25.242,13.429,282.083,-52.817,2.452,53.750,0.688,96.561,77.583
64.160,1142.000,48.000,173.050,25.242,13.429,281.299,-54.684,2.124,53.391,1.000,96.226,78.065
64.210,1146.500,46.000,173.050,25.372,13.280,280.437,-56.587,1.833,52.937,1.033,96.561,78.193
64.261,1145.500,44.000,161.050,25.372,13.280,279.468,-58.192,1.402,52.483,1.017,96.265,77.790
64.310,1144.500,44.000,161.050,26.071,13.328,279.199,-58.815,0.980,52.351,0.729,96.502,77.031
64.360,1141.500,44.000,163.050,26.288,12.851,283.142,-58.288,0.436,52.424,0.573,99.555,77.179
64.410,1141.500,44.000,163.050,26.288,12.851,283.142,-56.948,-0.236,52.695,0.376,103.081,77.583
64.461,1137.000,45.000,164.050,25.610,13.061,280.634,-55.212,-0.596,53.332,0.393,105.091,77.691
64.510,1135.500,46.000,164.050,25.610,13.061,280.634,-53.555,-0.635,53.728,0.359,102.057,78.410
64.561,1134.500,46.000,167.050,25.742,14.323,278.276,-52.014,-0.481,53.874,0.376,103.003,77.228
64.611,1134.500,46.000,167.050,25.742,14.323,278.276,-50.845,-0.541,53.889,0.231,101.742,76.647
64.660,1129.500,49.000,171.050,26.033,15.293,275.533,-50.297,-0.601,54.013,0.063,99.457,77.632
64.710,1129.500,49.000,171.050,26.033,15.293,275.533,-49.873,-0.721,54.006,-0.112,98.334,77.317
64.761,1133.000,49.000,175.050,25.025,16.074,272.355,-49.590,-0.892,53.984,-0.348,97.999,78.440
64.810,1134.000,49.000,175.050,25.025,16.074,272.355,-49.811,-0.892,54.042,-0.382,93.074,82.301
64.861,1136.500,48.000,174.050,23.657,18.359,274.010,-50.500,-0.806,54.130,-0.399,63.289,77.829
64.910,1140.000,47.000,174.050,23.657,18.359,274.010,-52.188,0.188,53.837,-0.412,69.140,80.341
64.960,1144.500,44.000,162.050,22.078,19.636,272.557,-53.425,1.492,53.632,0.003,60.275,78.942
65.010,1144.000,43.000,162.050,22.078,19.636,272.557,-53.519,2.378,53.127,0.701,64.038,78.844
65.061,1140.000,43.000,154.050,22.758,18.696,273.521,-54.380,2.559,53.157,1.025,67.465,80.085
65.110,1140.000,43.000,154.050,22.758,18.696,273.521,-55.082,1.718,53.274,0.914,65.003,79.090
65.160,1137.500,44.000,158.050,22.758,18.696,271.777,-55.588,0.518,53.457,0.509,66.934,80.085
65.210,1137.500,44.000,158.050,24.280,18.697,271.642,-55.921,-0.296,53.325,0.093,67.741,76.568
65.261,1138.500,43.000,158.050,24.321,19.640,267.673,-55.668,-0.459,53.003,-0.044,94.768,76.096
65.310,1140.000,43.000,158.050,24.321,19.640,267.673,-55.523,0.111,52.944,-0.086,113.029,75.347
65.360,1135.000,43.000,157.050,22.611,21.978,265.270,-55.371,1.472,53.120,0.136,119.629,76.155
65.410,1128.500,45.000,157.050,22.611,21.978,265.270,-53.729,2.850,53.296,0.647,117.934,75.839
65.461,1122.000,52.000,181.050,22.611,21.978,264.014,-51.460,3.449,53.793,1.099,122.465,75.534
