time(sec),engine_speed(rpm),actual_torque(%),fuel_rate(LPH),tilt_pitch(deg),tilt_roll(deg),tilt_yaw(deg),arm_tilit(deg),arm_roll(deg),boom_tilit(deg),boom_roll(deg),pressure(bar),flow_rate(LPM)
48.320,1131.500,40.000,165.050,84.049,-2.432,18.188,-85.451,1.673,59.204,0.840,-0.004,0.087
48.371,1129.000,42.000,154.050,84.049,-2.432,18.193,-88.531,1.726,59.066,0.959,-0.063,0.057
48.420,1132.500,42.000,154.050,84.049,-2.432,18.193,-88.636,1.767,59.155,0.939,-0.063,0.195
48.471,1131.000,42.000,151.050,84.225,-2.447,18.192,-88.323,1.825,59.424,0.898,-0.043,0.254
48.520,1131.000,42.000,151.050,84.225,-2.447,18.192,-88.479,1.767,59.530,0.770,-0.102,0.057
48.570,1136.000,40.000,151.050,82.309,-2.423,18.193,-88.062,1.677,59.334,0.697,-0.181,0.303
48.620,1131.500,42.000,145.050,79.137,-2.494,18.192,-88.688,1.603,58.683,0.688,-0.063,0.166
48.671,1125.500,43.000,151.050,79.137,-2.494,18.192,-88.792,1.624,57.966,0.824,-0.102,0.274
48.720,1125.500,43.000,151.050,79.137,-2.494,18.192,-88.375,1.952,57.917,1.107,-0.023,0.254
48.770,1112.000,52.000,177.050,76.383,-2.441,18.190,-85.712,2.194,58.471,1.390,-0.063,0.294
48.820,1119.000,51.000,177.050,76.383,-2.441,18.192,-73.913,2.280,59.440,1.455,-0.043,0.303
48.870,1127.000,48.000,174.050,74.082,-2.307,18.191,-66.854,2.267,60.263,1.386,-0.063,0.372
48.920,1130.500,48.000,174.050,74.082,-2.307,18.190,-61.718,2.079,60.646,1.176,-0.083,0.294
48.970,1134.000,47.000,170.050,73.358,-2.110,18.190,-59.646,1.677,61.200,0.885,-0.043,0.244
49.020,1141.500,44.000,170.050,73.358,-2.110,18.191,-59.582,1.300,61.827,0.573,-0.083,0.274
49.070,1141.500,44.000,170.050,74.568,-2.106,18.193,-61.345,1.021,62.340,0.308,-0.063,0.284
49.120,1150.000,36.000,149.050,74.568,-2.106,18.193,-64.913,0.820,62.414,0.188,-0.063,0.294
49.170,1150.000,36.000,149.050,76.601,-2.297,18.194,-70.842,0.885,61.966,0.188,-0.063,0.274
49.221,1146.000,35.000,141.050,78.844,-2.587,18.192,-75.356,0.963,61.281,0.299,-0.043,0.294
49.271,1146.000,35.000,141.050,78.844,-2.587,18.192,-80.459,1.238,60.271,0.668,-0.083,0.264
49.320,1145.500,34.000,136.050,78.844,-2.587,18.191,-81.692,1.632,59.163,1.070,-0.043,0.313
49.371,1140.000,35.000,133.050,80.713,-2.808,18.191,-79.099,1.935,58.479,1.423,-0.083,0.284
49.420,1140.000,35.000,133.050,80.713,-2.808,18.191,-74.807,2.366,58.259,1.907,-0.063,0.254
49.470,1119.000,44.000,151.050,80.897,-2.587,18.190,-71.814,2.862,58.455,2.214,-0.043,0.264
49.520,1119.000,44.000,151.050,80.897,-2.587,18.194,-67.224,3.080,59.049,2.198,-0.063,0.294
49.571,1114.000,49.000,151.050,78.646,-2.089,18.190,-62.781,2.743,60.068,1.960,-0.083,0.284
49.620,1114.500,52.000,174.050,78.646,-2.089,18.190,-59.950,2.087,60.817,1.382,-0.043,0.254
49.670,1117.500,55.000,186.050,75.620,-1.600,18.192,-58.400,1.230,61.387,0.684,-0.043,0.156
49.720,1117.500,55.000,186.050,75.620,-1.600,18.192,-58.080,0.376,61.672,0.033,-0.063,0.303
49.770,1127.500,52.000,189.050,74.235,-1.725,18.193,-58.567,0.016,61.835,-0.292,-0.043,0.038
49.820,1131.000,51.000,189.050,73.877,-2.559,18.195,-59.798,0.141,61.632,-0.249,-0.043,0.057
49.870,1138.500,50.000,183.050,73.877,-2.559,18.194,-61.150,0.664,61.151,-0.005,-0.043,0.244
49.920,1147.500,46.000,183.050,73.877,-2.559,18.194,-62.367,1.271,60.434,0.325,-0.043,0.185
49.970,1153.500,40.000,159.050,74.492,-3.058,18.191,-63.463,1.788,59.603,0.807,-0.043,0.106
50.020,1151.000,39.000,159.050,74.492,-3.058,18.191,-64.735,2.140,58.797,1.205,-0.023,0.303
50.071,1148.500,39.000,148.050,75.902,-2.940,18.190,-66.239,2.350,58.031,1.459,-0.004,0.235
50.120,1148.500,39.000,148.050,75.902,-2.940,18.190,-67.224,2.448,57.534,1.751,-0.063,0.254
50.171,1143.000,39.000,147.050,76.578,-2.455,18.193,-67.306,2.419,57.379,1.861,-0.043,0.057
50.220,1142.000,39.000,147.050,76.578,-2.455,18.193,-66.307,2.226,57.298,1.890,-0.043,0.244
50.270,1139.500,40.000,148.050,76.175,-1.950,18.192,-64.489,2.030,57.518,1.656,-0.043,0.205
50.320,1139.500,40.000,148.050,76.175,-1.950,18.192,-62.871,1.845,57.648,1.353,-0.083,0.284
50.370,1135.000,40.000,148.050,75.516,-1.890,18.192,-61.458,1.525,57.836,1.037,-0.043,0.303
50.420,1137.000,41.000,148.050,75.516,-1.890,18.192,-60.110,1.295,57.884,0.693,-0.043,0.254
50.470,1136.500,40.000,148.050,75.109,-2.198,18.192,-58.855,1.205,57.917,0.440,-0.063,0.225
50.520,1136.500,40.000,148.050,75.109,-2.198,18.191,-57.759,1.181,57.713,0.235,5.945,29.389
50.570,1132.000,39.000,141.050,75.186,-2.388,18.194,-57.136,1.246,57.599,0.261,15.007,56.997
50.621,1098.000,61.000,141.050,75.186,-2.388,18.194,-57.151,1.308,57.591,0.449,9.018,85.797
50.670,1089.000,77.000,248.050,76.959,-2.390,18.192,-56.731,1.390,57.306,0.750,10.516,110.135
50.720,1089.000,77.000,248.050,76.959,-2.390,18.192,-54.749,1.558,56.638,1.000,17.174,75.258
50.770,1115.500,66.000,248.050,76.499,-2.066,18.193,-52.521,1.701,55.909,1.398,6.615,77.425
50.820,1126.500,61.000,215.050,76.499,-2.066,18.191,-52.390,2.030,55.807,1.554,6.300,81.503
50.870,1130.500,60.000,208.050,74.818,-1.799,18.191,-53.519,2.337,56.173,1.693,27.201,80.873
50.920,1130.500,60.000,208.050,74.818,-1.799,18.193,-54.944,2.423,56.217,1.574,27.989,80.695
50.971,1133.000,59.000,208.050,74.026,-1.501,18.191,-55.516,2.222,56.144,1.377,9.137,80.193
51.020,1140.500,58.000,208.050,74.026,-1.501,18.191,-55.805,2.144,55.975,1.181,1.789,79.050
51.070,1151.000,52.000,208.050,73.857,-1.467,18.193,-55.856,2.099,55.470,1.119,1.671,81.060
51.121,1155.500,47.000,181.050,73.857,-1.467,18.191,-54.886,2.116,55.060,1.012,1.316,80.311
51.170,1150.000,46.000,171.050,74.209,-1.789,18.191,-53.063,2.112,54.408,1.156,1.355,80.262
51.221,1145.000,46.000,171.050,75.310,-2.142,18.192,-51.294,2.071,53.801,1.377,1.355,82.104
51.270,1142.000,47.000,172.050,75.310,-2.142,18.191,-49.694,2.083,53.581,1.431,3.818,81.808
51.320,1137.500,47.000,172.050,75.310,-2.142,18.191,-48.415,2.050,53.742,1.472,4.527,79.868
51.370,1133.500,48.000,170.050,75.524,-2.191,18.191,-47.252,1.861,54.174,1.431,2.597,81.651
51.420,1132.000,48.000,170.050,75.524,-2.191,18.191,-46.441,1.619,54.540,1.205,2.537,80.853
51.470,1131.000,49.000,173.050,74.047,-2.216,18.193,-46.096,1.316,54.775,0.906,7.639,78.213
51.520,1135.000,48.000,173.050,74.047,-2.216,18.193,-46.352,1.090,54.753,0.436,55.311,78.903
51.570,1135.000,48.000,173.050,72.698,-1.048,18.192,-46.981,0.935,54.548,0.132,62.265,77.859
51.620,1137.500,47.000,171.050,72.698,-1.048,18.192,-47.879,1.168,54.365,0.025,63.250,78.430
51.670,1138.500,47.000,172.050,72.232,-0.119,18.192,-48.833,1.611,53.830,0.222,61.024,78.548
51.720,1138.500,47.000,172.050,72.232,-0.119,18.192,-49.473,2.058,52.944,0.556,61.103,77.878
51.771,1138.500,47.000,172.050,72.150,-3.166,18.190,-50.008,2.325,52.051,1.004,62.029,78.735
51.820,1138.000,47.000,170.050,72.150,-3.166,18.190,-50.667,2.436,51.077,1.447,44.083,89.067
51.871,1138.500,47.000,170.050,73.766,-5.982,18.190,-51.638,2.505,50.308,1.751,23.714,82.114
51.920,1138.500,47.000,170.050,73.766,-5.982,18.190,-52.658,2.911,49.862,2.116,23.576,82.311
51.970,1137.500,47.000,169.050,74.511,-9.667,18.190,-52.846,3.683,49.803,2.112,29.013,82.557
52.020,1135.500,47.000,169.050,74.511,-9.667,18.190,-52.969,3.637,49.884,1.681,29.171,81.267
52.071,1134.000,48.000,171.050,73.637,-9.314,18.190,-52.998,2.710,49.928,1.427,22.158,78.006
52.120,1134.000,48.000,171.050,73.637,-9.314,18.190,-52.535,1.984,49.876,1.103,56.513,79.031
52.170,1132.000,48.000,173.050,71.946,-10.373,18.190,-52.079,1.706,49.671,1.094,60.137,80.695
52.220,1132.000,48.000,173.050,71.946,-10.373,18.190,-51.405,1.738,49.364,0.947,57.577,79.710
52.270,1135.000,48.000,173.050,71.356,-10.909,18.191,-50.790,1.890,49.013,0.758,58.581,79.021
52.320,1135.500,48.000,172.050,71.356,-10.909,18.190,-50.131,2.243,48.852,0.824,58.502,80.636
52.371,1136.500,47.000,172.050,71.353,-8.186,18.190,-49.504,2.534,48.781,0.935,57.478,79.661
52.420,1137.500,47.000,169.050,71.353,-8.186,18.190,-48.833,2.965,48.680,1.099,57.577,78.834
52.471,1137.500,47.000,169.050,71.316,-4.414,18.191,-48.249,3.231,48.514,1.164,56.276,79.021
52.520,1132.500,47.000,167.050,71.316,-4.414,18.190,-47.566,3.199,48.194,1.201,57.557,86.703
52.571,1130.500,48.000,170.050,69.973,-1.413,18.192,-46.661,3.379,47.880,1.328,19.656,79.553
52.620,1126.500,50.000,170.050,69.973,-1.413,18.196,-45.834,3.748,47.524,1.332,24.975,81.050
52.670,1126.500,50.000,170.050,67.636,2.449,18.192,-45.828,4.249,47.477,1.431,29.230,79.819
52.720,1124.000,54.000,185.050,67.636,2.449,18.194,-46.698,4.527,47.459,1.464,32.362,81.217
52.771,1132.000,53.000,187.050,66.592,2.384,18.194,-47.812,4.195,47.352,1.382,32.460,79.829
52.820,1132.000,53.000,187.050,67.502,0.988,18.195,-48.932,3.510,46.926,1.271,14.337,81.483
52.870,1131.000,54.000,191.050,67.502,0.988,18.194,-49.885,2.944,46.357,1.193,14.396,80.035
52.920,1131.500,54.000,191.050,67.502,0.988,18.194,-50.660,2.473,45.741,1.205,2.143,80.508
52.970,1131.500,54.000,191.050,69.034,0.154,18.199,-51.183,2.185,45.089,1.308,1.966,80.863
53.020,1132.500,54.000,191.050,69.034,0.154,18.187,-51.417,1.919,44.579,1.501,1.749,79.671
53.070,1125.500,57.000,198.050,70.139,-0.409,18.193,-51.171,1.665,44.188,1.640,1.749,82.163
53.120,1122.000,61.000,198.050,70.139,-0.409,18.193,-50.716,1.410,44.064,1.685,1.730,80.922
53.171,1122.000,61.000,198.050,70.534,-0.801,18.192,-49.977,1.271,44.004,1.710,1.769,81.592
53.220,1126.500,61.000,206.050,69.998,-1.004,18.191,-48.993,1.086,44.111,1.636,1.730,81.483
53.270,1126.500,61.000,208.050,69.998,-1.004,18.193,-47.763,0.947,44.170,1.558,1.730,80.833
53.320,1130.500,60.000,208.050,69.998,-1.004,18.193,-46.473,0.783,44.235,1.336,1.749,82.340
53.370,1130.500,60.000,208.050,68.989,-1.020,18.194,-45.042,0.623,44.241,1.127,1.533,80.882
53.421,1132.000,60.000,208.050,68.420,-0.944,18.191,-43.931,0.496,44.218,0.816,1.552,82.114
53.470,1132.000,60.000,208.050,68.420,-0.944,18.194,-42.973,0.419,44.099,0.651,1.769,81.424
53.520,1136.000,60.000,210.050,68.420,-0.944,18.194,-42.232,0.530,44.004,0.556,1.749,80.804
53.570,1138.500,59.000,208.050,67.955,-0.802,18.191,-41.504,0.610,43.809,0.631,1.671,82.291
53.620,1141.500,58.000,208.050,67.955,-0.802,18.193,-41.191,0.746,43.435,0.717,1.749,81.306
53.671,1141.500,58.000,208.050,68.024,-0.504,18.190,-41.287,0.967,43.068,0.988,1.749,82.675
53.720,1143.000,56.000,204.050,68.024,-0.504,18.193,-41.638,1.135,42.742,1.127,3.109,77.553
53.770,1143.000,56.000,204.050,68.432,-0.245,17.227,-42.047,1.267,42.363,1.418,40.360,79.356
53.820,1141.500,56.000,199.050,68.432,-0.245,17.400,-42.698,1.353,42.008,1.496,53.420,77.534
53.870,1139.000,56.000,199.050,68.733,-0.282,18.303,-43.312,1.242,41.590,1.558,70.578,78.617
53.920,1139.000,56.000,199.050,68.733,-0.282,19.168,-43.937,1.213,41.220,1.501,55.646,88.870
53.970,1135.500,57.000,199.050,69.212,-0.422,19.201,-44.614,1.140,40.866,1.554,14.810,83.936
54.021,1139.000,56.000,200.050,69.212,-0.422,19.185,-45.413,0.984,40.518,1.619,4.409,82.941
54.070,1138.500,56.000,197.050,70.664,-0.311,19.747,-45.802,1.090,40.325,1.911,2.616,83.965
54.120,1138.500,56.000,197.050,72.115,-0.336,19.755,-45.592,1.025,39.971,2.103,12.682,83.926
54.171,1140.500,55.000,195.050,72.115,-0.336,19.759,-44.902,1.086,39.713,1.960,14.199,83.936
54.220,1139.000,55.000,195.050,72.013,0.212,19.755,-43.835,1.431,39.563,1.943,31.140,83.138
54.270,1140.000,55.000,193.050,72.013,0.212,19.753,-42.373,1.697,39.504,1.948,22.611,84.960
54.320,1138.000,55.000,193.050,70.918,0.890,19.747,-40.757,2.038,39.660,1.956,2.104,83.128
54.371,1138.500,55.000,192.050,70.918,0.890,19.745,-39.775,2.149,40.051,1.800,1.907,83.857
54.420,1139.500,54.000,192.050,70.040,1.451,19.750,-39.081,2.231,40.410,1.574,1.749,83.581
54.470,1143.500,53.000,192.050,70.040,1.451,19.750,-38.787,2.292,40.620,1.222,1.749,81.798
54.520,1152.000,47.000,192.050,70.040,1.451,19.749,-39.252,2.321,40.737,0.906,1.749,80.902
54.570,1152.500,43.000,164.050,71.040,1.712,19.755,-40.677,2.313,40.721,0.697,1.749,80.498
54.620,1149.000,44.000,164.050,72.121,1.395,19.759,-43.989,2.358,40.620,0.552,1.671,79.868
54.670,1140.500,47.000,169.050,72.121,1.395,19.760,-48.956,2.321,40.335,0.738,1.336,77.406
54.720,1135.000,48.000,169.050,72.121,1.395,19.760,-52.347,2.419,39.569,0.779,1.336,72.205
54.770,1132.500,49.000,175.050,74.239,1.276,19.760,-53.729,2.079,37.960,1.197,1.710,64.138
54.820,1121.000,57.000,175.050,74.239,1.276,19.760,-53.736,2.243,36.595,1.804,1.769,61.676
54.871,1119.500,62.000,210.050,76.795,0.592,19.759,-53.830,2.669,36.487,2.505,1.749,59.430
54.920,1115.500,67.000,210.050,76.845,0.093,19.759,-53.903,2.944,37.231,2.891,1.730,62.355
54.971,1116.500,70.000,237.050,76.845,0.093,19.760,-53.020,2.772,38.175,2.756,1.769,64.168
55.020,1116.000,73.000,237.050,75.938,0.213,19.759,-52.282,2.198,39.129,2.296,1.336,62.799
55.071,1121.000,73.000,241.050,75.938,0.213,19.759,-52.079,1.644,40.003,1.607,1.336,62.483
55.120,1131.500,68.000,241.050,77.063,-0.099,19.759,-52.029,1.168,40.673,0.902,1.355,60.474
55.171,1139.500,66.000,227.050,77.063,-0.099,19.759,-52.369,1.053,40.979,0.436,1.355,58.435
55.220,1149.500,60.000,227.050,79.699,-0.737,19.759,-52.354,0.955,41.011,0.115,1.001,56.593
55.271,1148.000,59.000,202.050,79.699,-0.737,19.759,-51.544,0.914,40.882,0.201,0.902,54.880
55.320,1146.000,57.000,202.050,81.075,-0.633,19.759,-50.365,1.049,40.566,0.445,0.942,52.880
55.371,1146.000,57.000,202.050,81.075,-0.633,19.759,-48.747,1.353,40.469,0.861,0.942,56.190
55.420,1137.500,60.000,206.050,79.680,-0.050,19.759,-47.055,1.796,40.711,1.484,0.942,56.800
55.470,1133.500,60.000,209.050,79.680,-0.050,19.759,-45.956,2.132,41.274,2.050,0.922,58.228
55.521,1133.500,60.000,209.050,79.680,-0.050,19.759,-45.822,2.501,42.056,2.415,0.942,57.539
55.570,1132.000,61.000,212.050,79.043,0.607,19.759,-46.486,2.489,43.086,2.509,0.942,56.978
55.620,1131.000,61.000,212.050,79.169,0.672,19.759,-47.621,2.161,43.619,2.128,0.962,57.244
55.670,1131.000,62.000,213.050,79.169,0.672,19.759,-49.171,1.767,43.767,1.472,0.942,56.298
55.720,1132.000,62.000,213.050,79.169,0.672,19.759,-51.146,1.369,43.720,0.885,0.942,57.194
55.770,1132.500,62.000,215.050,80.349,-0.000,19.759,-53.678,1.140,43.566,0.389,0.962,56.800
55.820,1133.500,62.000,215.050,80.349,-0.000,19.759,-56.283,1.008,43.441,0.209,7.521,57.194
55.871,1134.000,62.000,214.050,81.000,-0.203,19.759,-58.312,1.172,43.394,0.321,6.694,56.150
55.921,1137.000,62.000,214.050,81.000,-0.203,19.759,-59.774,1.439,43.572,0.758,6.556,55.549
55.971,1137.000,61.000,211.050,81.059,0.019,19.759,-60.342,1.742,43.809,1.271,6.576,55.559
56.020,1137.500,61.000,211.050,81.059,0.019,19.759,-60.653,2.132,43.981,1.697,1.237,55.352
56.070,1137.500,60.000,209.050,80.419,0.609,19.759,-60.877,2.382,44.235,2.034,0.942,55.628
56.120,1136.000,61.000,209.050,80.346,0.925,19.760,-61.466,2.477,44.502,2.103,0.942,56.751
56.170,1137.000,60.000,209.050,80.346,0.925,19.759,-62.424,2.391,44.787,2.050,0.942,56.387
56.220,1134.500,61.000,209.050,80.732,0.597,19.759,-63.349,2.210,45.071,1.742,0.922,56.377
56.270,1137.500,60.000,210.050,80.732,0.597,19.759,-64.721,2.026,45.278,1.509,3.581,55.943
56.320,1137.500,60.000,210.050,81.101,0.024,19.759,-66.417,1.853,45.563,1.222,3.838,54.545
56.371,1140.000,59.000,208.050,81.101,0.024,19.759,-67.921,1.656,45.995,0.930,3.739,54.909
56.420,1140.000,59.000,208.050,81.101,0.024,19.759,-68.728,1.566,46.268,0.869,1.474,54.929
56.471,1142.500,58.000,206.050,81.528,-0.234,19.759,-68.810,1.484,46.511,0.824,7.639,54.092
56.520,1143.000,57.000,206.050,82.070,-0.134,19.759,-68.618,1.480,46.707,0.906,11.757,54.249
56.570,1142.500,57.000,203.050,82.070,-0.134,19.759,-67.976,1.521,46.997,1.021,11.816,54.111
56.620,1140.000,57.000,203.050,82.070,-0.134,19.759,-67.388,1.537,47.240,1.119,6.221,54.230
56.670,1138.500,58.000,203.050,81.941,0.025,19.759,-67.648,1.542,47.435,1.234,1.375,55.549
56.720,1133.500,59.000,203.050,81.941,0.025,19.759,-68.386,1.587,47.643,1.238,1.316,55.983
56.771,1131.000,59.000,207.050,81.836,0.064,19.759,-70.016,1.619,47.821,1.267,1.296,57.086
56.820,1126.500,62.000,207.050,82.128,-0.040,19.759,-71.624,1.652,47.898,1.254,1.021,57.756
56.871,1128.000,64.000,211.050,82.128,-0.040,19.759,-73.333,1.640,47.981,1.238,0.981,57.283
56.921,1128.000,64.000,211.050,82.128,-0.040,19.759,-75.565,1.591,48.182,1.115,0.962,58.622
56.970,1126.500,65.000,211.050,82.686,-0.147,19.759,-78.744,1.521,48.230,1.017,0.922,58.682
57.020,1128.000,65.000,219.050,83.447,-0.211,19.759,-82.318,1.476,48.366,0.959,3.030,58.228
57.070,1132.000,64.000,218.050,83.447,-0.211,19.759,-86.495,1.492,48.490,0.955,5.177,58.554
57.120,1135.000,63.000,218.050,83.447,-0.211,19.759,-88.114,1.619,48.680,1.066,5.157,57.450
57.170,1134.500,63.000,219.050,83.848,-0.133,19.759,-88.375,1.673,48.875,1.135,6.536,59.381
57.220,1136.500,63.000,219.050,83.848,-0.133,19.759,-88.427,1.714,48.969,1.135,4.527,58.800
57.270,1135.000,63.000,219.050,84.034,0.007,19.759,-88.375,1.738,49.291,1.230,4.744,59.470
57.320,1133.500,63.000,219.050,84.237,0.014,19.759,-88.166,1.759,49.620,1.185,4.369,61.055
57.370,1134.000,63.000,219.050,84.237,0.014,19.759,-88.270,1.693,49.935,1.111,1.572,60.642
57.420,1132.500,64.000,219.050,84.822,-0.092,19.759,-88.792,1.537,50.133,1.062,1.592,61.686
57.471,1133.500,64.000,220.050,84.822,-0.092,19.759,-88.270,1.480,50.345,1.041,1.454,60.484
57.520,1135.000,64.000,220.050,84.822,-0.092,19.759,-88.323,1.431,50.667,0.939,6.635,60.523
57.570,1132.000,64.000,219.050,85.629,-0.215,19.756,-88.270,1.451,50.858,0.873,6.950,64.798
57.620,1107.000,80.000,219.050,84.567,-0.287,19.754,-88.270,1.574,50.909,0.930,3.266,74.214
57.671,1096.000,89.000,290.050,84.567,-0.287,19.754,-79.267,1.779,50.550,1.017,20.227,115.888
57.720,1131.000,82.000,290.050,81.948,-0.304,19.757,-73.835,2.030,49.693,0.959,21.252,80.725
57.770,1145.500,72.000,257.050,81.948,-0.304,19.757,-76.548,2.550,50.550,0.955,8.624,77.061
57.820,1156.000,65.000,257.050,77.547,-0.253,19.758,-88.897,2.669,53.083,1.004,11.402,73.761
57.870,1163.000,57.000,208.050,77.547,-0.253,19.759,-88.897,2.661,54.064,1.037,11.973,70.087
57.921,1163.000,57.000,208.050,77.547,-0.253,19.759,-88.531,1.943,54.079,1.053,11.993,67.477
57.971,1125.500,70.000,231.050,71.466,-0.059,19.760,-84.355,0.910,54.094,1.135,3.325,74.017
58.021,1116.000,78.000,231.050,71.466,-0.059,19.760,-72.964,0.201,53.911,1.111,5.906,86.378
58.071,1130.000,72.000,257.050,66.596,-0.568,24.694,-63.114,1.927,53.215,1.369,11.914,75.150
58.120,1130.000,72.000,257.050,66.596,-0.568,24.694,-57.404,3.892,52.644,2.054,6.024,77.947
58.170,1150.500,63.000,226.050,61.896,-3.080,24.694,-55.733,4.105,53.222,2.628,5.788,76.765
58.220,1149.000,61.000,226.050,61.896,-3.080,24.694,-57.129,3.071,54.994,2.464,8.979,78.213
58.270,1147.500,61.000,215.050,59.347,-6.377,24.697,-59.207,1.103,55.975,1.599,10.949,77.415
58.320,1143.500,62.000,215.050,59.347,-6.377,24.700,-61.117,-1.252,55.675,0.660,8.684,77.849
58.370,1141.000,63.000,218.050,59.009,-8.068,24.694,-62.700,-3.442,55.243,-0.219,1.789,78.253
58.420,1141.000,63.000,218.050,59.009,-8.068,24.694,-65.350,-4.482,54.950,-0.832,1.769,76.992
58.471,1135.500,64.000,218.050,59.608,-8.022,24.694,-69.737,-4.466,54.643,-0.853,1.592,75.229
58.520,1110.000,83.000,227.050,60.653,-7.451,24.695,-71.847,-3.578,53.793,-0.408,1.533,73.761
58.570,1110.000,83.000,227.050,60.653,-7.451,24.695,-72.048,-2.430,52.834,0.149,1.572,73.476
58.620,1115.000,87.000,282.050,60.653,-7.451,24.695,-70.943,-1.466,51.948,0.857,1.355,75.770
58.671,1116.000,89.000,287.050,62.032,-6.704,24.693,-69.636,-0.840,51.326,1.480,1.139,78.647
58.721,1121.000,88.000,287.050,62.032,-6.704,24.693,-67.798,-0.382,51.253,1.911,1.887,80.016
58.770,1121.000,88.000,287.050,62.304,-4.826,24.693,-65.911,-0.301,51.429,2.099,4.094,78.233
58.820,1128.000,85.000,286.050,59.745,-3.657,24.692,-63.991,-0.566,51.553,1.989,4.566,78.903
58.870,1141.000,82.000,278.050,59.745,-3.657,24.694,-63.009,-0.896,51.656,1.574,8.526,77.603
58.920,1147.000,77.000,278.050,59.745,-3.657,24.694,-61.962,-1.042,51.670,1.115,8.487,78.597
58.970,1150.000,74.000,264.050,57.710,-3.798,24.692,-60.581,-0.879,51.714,0.791,2.163,78.302
59.020,1150.000,74.000,264.050,57.710,-3.798,24.692,-59.143,-0.609,51.568,0.492,1.966,77.780
59.070,1147.000,72.000,253.050,56.456,-3.594,24.693,-57.672,-0.061,51.194,0.248,1.690,79.011
59.120,1144.500,72.000,253.050,56.456,-3.594,24.694,-56.673,0.479,50.931,0.183,1.552,78.922
59.170,1145.000,71.000,248.050,55.580,-2.390,24.685,-56.044,1.049,50.491,0.201,1.552,79.247
59.220,1144.000,70.000,248.050,55.580,-2.390,24.689,-55.668,2.883,49.745,0.393,1.730,79.336
59.270,1144.000,70.000,248.050,54.708,1.038,24.689,-55.436,4.474,48.954,0.462,1.789,80.242
59.320,1142.500,70.000,244.050,54.708,1.038,24.690,-55.494,5.594,48.443,0.449,1.749,79.356
59.370,1140.000,71.000,243.050,54.173,5.762,24.689,-55.661,6.631,47.963,0.750,1.730,79.139
59.420,1142.000,70.000,243.050,54.173,5.762,24.689,-56.073,7.718,47.406,1.222,1.612,80.873
59.470,1143.000,70.000,241.050,53.901,8.691,24.688,-56.493,8.847,46.730,1.829,4.901,79.947
59.520,1143.000,70.000,241.050,53.901,8.691,24.688,-56.941,9.833,46.001,2.263,5.335,79.858
59.570,1145.000,66.000,229.050,53.581,9.936,24.690,-57.520,10.166,45.344,2.399,2.577,81.729
59.620,1146.500,64.000,229.050,53.581,9.936,24.690,-58.456,9.997,44.650,2.411,2.518,80.134
59.671,1142.500,64.000,219.050,53.476,9.677,24.685,-59.678,9.494,44.141,2.407,1.730,80.065
59.721,1142.500,64.000,219.050,53.476,9.677,24.689,-60.749,8.693,43.690,2.362,1.730,79.878
59.770,1139.500,64.000,219.050,53.413,7.532,24.688,-61.272,7.956,43.216,2.391,1.572,80.016
59.820,1137.000,64.000,219.050,52.942,4.822,24.701,-61.029,7.099,42.736,2.247,8.959,79.760
59.870,1138.000,64.000,221.050,52.942,4.822,24.702,-60.294,6.041,42.094,2.116,8.979,80.252
59.920,1136.500,64.000,221.050,52.942,4.822,24.702,-59.503,4.979,41.520,1.993,14.711,79.622
59.970,1139.000,64.000,221.050,53.066,2.659,24.702,-59.111,4.339,41.118,1.902,14.751,80.104
60.020,1139.000,64.000,221.050,53.066,2.659,24.702,-59.255,3.781,40.812,1.857,2.143,80.794
60.070,1142.000,63.000,221.050,53.429,1.346,24.702,-59.630,3.613,40.405,1.989,1.927,79.641
60.120,1146.000,60.000,216.050,53.429,1.346,24.702,-59.542,3.449,40.008,1.952,1.789,80.508
60.170,1146.000,57.000,202.050,54.452,1.295,24.702,-58.639,3.067,39.703,1.882,1.730,85.374
60.220,1146.000,57.000,202.050,54.452,1.295,24.702,-58.088,2.661,39.563,1.706,2.124,83.729
60.271,1147.500,55.000,202.050,57.366,1.329,24.702,-59.279,1.468,39.906,1.710,2.163,83.709
60.321,1144.000,56.000,198.050,57.366,1.329,24.702,-60.693,-0.335,40.459,1.714,1.651,83.926
60.371,1139.000,57.000,198.050,61.915,1.118,24.702,-59.574,-0.785,40.662,1.570,1.592,83.453
60.420,1130.500,60.000,204.050,61.915,1.118,24.702,-57.050,-0.181,40.416,1.324,1.651,81.217
60.470,1128.000,63.000,216.050,63.967,0.060,24.702,-55.132,0.389,40.260,1.103,1.749,80.459
60.520,1128.000,63.000,216.050,64.298,-1.033,24.702,-54.315,0.775,40.378,0.873,1.789,79.267
60.570,1141.500,61.000,214.050,64.298,-1.033,24.702,-54.539,0.582,40.539,0.458,4.389,79.484
60.620,1141.500,61.000,214.050,67.861,-0.761,24.702,-54.358,0.436,40.464,-0.091,7.108,78.223
60.671,1147.000,58.000,214.050,67.861,-0.761,24.702,-53.440,0.635,40.089,-0.275,3.010,79.366
60.720,1148.000,56.000,196.050,67.861,-0.761,24.701,-52.593,1.185,39.756,0.286,2.163,77.425
60.771,1142.000,57.000,196.050,69.398,-0.358,24.702,-52.506,1.529,40.030,0.627,2.104,74.579
60.820,1136.500,58.000,199.050,69.398,-0.358,24.701,-52.195,1.779,40.469,0.750,9.629,70.245
60.871,1126.000,60.000,199.050,70.555,0.098,24.701,-51.202,1.308,40.646,0.955,13.175,67.822
60.921,1118.000,69.000,220.050,70.555,0.098,24.701,-50.574,1.078,40.630,1.049,13.214,65.133
60.970,1129.500,67.000,238.050,71.377,0.198,24.701,-50.783,1.074,40.893,1.099,13.175,62.996
61.020,1138.000,65.000,238.050,72.425,-0.573,24.702,-52.998,0.672,41.579,0.684,13.175,61.075
61.070,1138.000,65.000,238.050,72.425,-0.573,24.702,-55.415,0.363,42.137,-0.009,7.639,58.849
61.120,1145.500,62.000,222.050,72.425,-0.573,24.702,-57.136,0.316,42.003,-0.438,0.824,56.978
61.170,1153.000,56.000,222.050,76.147,-0.559,24.702,-58.040,0.505,41.467,-0.571,0.705,55.155
61.220,1153.500,53.000,194.050,76.147,-0.559,24.701,-57.491,1.345,40.711,-0.296,0.745,53.501
61.270,1138.000,58.000,203.050,79.891,-0.545,24.701,-55.820,2.108,39.874,0.530,0.725,57.480
61.320,1132.000,59.000,203.050,79.891,-0.545,24.701,-54.467,3.363,39.226,1.291,0.942,60.445
61.370,1125.000,63.000,211.050,79.710,-0.402,24.702,-54.011,4.905,39.247,2.267,0.922,62.523
61.420,1125.000,63.000,211.050,79.710,-0.402,24.701,-54.821,5.836,40.083,3.281,1.474,61.824
61.471,1127.500,65.000,222.050,77.946,0.786,24.702,-56.174,6.033,41.054,3.941,1.533,59.657
61.521,1129.000,65.000,222.050,77.946,0.786,24.702,-57.419,5.376,41.954,3.777,1.533,60.445
61.570,1129.000,65.000,222.050,77.045,1.384,24.702,-58.543,4.367,42.523,3.067,1.513,60.681
61.620,1127.000,67.000,223.050,77.045,1.384,24.701,-59.870,3.350,42.967,2.177,0.981,60.878
61.670,1131.500,67.000,228.050,77.827,0.855,24.701,-61.288,2.259,43.513,1.172,5.315,59.873
61.720,1137.000,66.000,228.050,77.827,0.855,24.701,-62.716,1.501,44.058,0.256,5.354,58.209
61.771,1137.000,66.000,228.050,78.787,-0.034,24.702,-63.220,1.176,44.431,-0.134,5.335,58.002
61.820,1145.500,62.000,220.050,79.330,-0.307,24.701,-62.538,1.090,44.704,-0.189,1.178,56.278
61.870,1147.000,57.000,200.050,79.330,-0.307,24.701,-61.101,1.275,44.893,0.175,1.139,56.919
61.920,1141.000,58.000,200.050,79.330,-0.307,24.701,-59.111,1.382,44.976,0.832,1.139,58.603
61.970,1141.000,58.000,200.050,77.742,0.080,24.701,-57.968,1.648,45.237,1.336,3.877,58.800
62.020,1138.500,59.000,207.050,77.742,0.080,24.702,-57.992,1.956,45.658,1.841,10.319,60.494
62.070,1128.500,61.000,211.050,76.989,0.720,24.701,-59.103,2.054,45.907,2.116,3.089,62.523
62.120,1125.000,65.000,211.050,76.989,0.720,24.701,-60.709,1.907,46.238,1.964,2.636,61.725
62.170,1125.000,65.000,211.050,78.048,0.520,24.701,-62.757,1.619,46.310,1.624,2.577,64.178
62.220,1124.500,70.000,231.050,78.048,0.520,24.701,-65.774,1.357,46.315,1.119,2.242,63.961
62.270,1129.000,69.000,239.050,79.545,-0.003,24.701,-69.558,1.090,46.292,0.705,1.454,65.192
62.321,1129.000,69.000,239.050,79.545,-0.003,24.701,-72.048,1.004,46.333,0.565,1.375,65.182
62.371,1132.000,69.000,236.050,80.908,-0.382,24.701,-73.802,1.218,46.452,0.647,1.355,65.566
62.420,1131.000,69.000,236.050,80.908,-0.382,24.701,-74.460,1.443,46.582,0.857,1.336,67.654
62.471,1131.000,69.000,236.050,81.511,-0.315,24.701,-74.003,1.734,46.795,1.246,1.336,67.546
62.521,1133.000,69.000,234.050,81.511,-0.315,24.701,-73.612,2.185,46.867,1.570,1.375,68.590
62.570,1128.500,70.000,235.050,81.225,0.126,24.701,-73.288,2.460,47.062,1.747,1.355,70.471
62.620,1125.500,71.000,235.050,81.225,0.126,24.701,-73.444,2.391,47.293,1.812,1.336,70.393
62.670,1124.000,74.000,244.050,80.850,0.378,24.701,-73.936,2.185,47.601,1.689,1.474,73.348
62.720,1124.500,75.000,244.050,80.850,0.378,24.701,-74.617,1.919,47.927,1.427,1.592,73.545
62.770,1125.000,75.000,259.050,80.994,0.156,24.702,-76.172,1.599,48.271,1.123,1.552,75.642
62.820,1127.500,76.000,259.050,80.994,0.156,24.702,-77.301,1.394,48.567,0.852,1.552,76.027
62.870,1127.000,78.000,263.050,81.454,-0.280,24.701,-77.991,1.287,48.721,0.750,1.572,78.784
62.920,1128.000,78.000,263.050,81.454,-0.280,24.701,-78.409,1.218,48.881,0.697,1.769,79.612
62.971,1128.500,79.000,270.050,81.958,-0.552,24.701,-78.828,1.103,49.027,0.738,1.749,80.262
63.020,1129.000,79.000,270.050,82.331,-0.414,24.701,-78.388,1.287,49.298,0.824,1.749,82.764
63.070,1128.000,80.000,270.050,82.331,-0.414,24.701,-78.388,1.386,49.488,0.988,1.730,82.468
63.120,1133.000,80.000,270.050,82.331,-0.414,24.701,-78.284,1.451,49.584,1.070,1.749,82.813
63.171,1133.000,80.000,270.050,82.658,-0.137,24.701,-78.388,1.513,49.671,1.135,8.821,77.898
63.220,1137.500,79.000,271.050,82.658,-0.137,24.701,-78.828,1.472,49.737,1.172,9.156,77.021
63.270,1134.500,80.000,269.050,82.688,-0.071,24.701,-79.497,1.468,49.774,1.168,2.813,78.745
63.320,1134.500,80.000,269.050,82.688,-0.071,24.701,-79.957,1.390,49.855,1.111,9.747,77.524
63.371,1127.000,82.000,271.050,82.957,-0.095,24.701,-80.250,1.414,50.184,1.111,9.767,78.784
63.420,1127.000,82.000,271.050,82.957,-0.095,24.701,-80.563,1.542,50.352,1.074,1.966,78.075
63.470,1112.000,90.000,298.050,83.655,-0.043,24.701,-80.103,1.624,50.470,1.049,1.927,77.662
63.520,1103.000,89.000,298.050,83.655,-0.043,24.701,-79.748,1.697,50.609,1.070,1.592,78.440
63.570,1124.500,90.000,297.050,84.034,0.112,24.701,-79.476,1.845,50.696,1.115,1.533,77.386
63.620,1157.000,80.000,297.050,84.034,0.112,24.701,-78.158,1.878,50.711,1.086,1.730,79.041
63.670,1157.000,80.000,297.050,85.566,0.354,24.701,-74.583,1.866,50.616,1.066,1.749,80.321
63.720,1191.500,51.000,248.050,85.566,0.354,24.701,-71.903,1.747,50.550,1.090,4.862,81.316
63.770,1195.000,41.000,171.050,86.284,0.422,24.696,-71.032,1.886,50.491,0.918,6.320,82.724
63.820,1184.000,40.000,171.050,86.284,0.422,24.696,-71.613,1.964,50.301,0.775,6.221,82.685
63.870,1169.500,42.000,153.050,85.475,0.499,24.689,-73.143,2.509,49.752,0.742,8.762,82.133
63.920,1169.500,42.000,153.050,85.475,0.499,24.689,-77.845,3.523,50.038,0.668,8.762,83.089
63.971,1137.000,54.000,190.050,84.056,0.538,24.696,-88.427,5.192,50.887,0.758,1.848,82.360
64.021,1137.000,54.000,190.050,84.056,0.538,24.696,-88.949,6.845,52.139,0.930,1.710,82.104
64.070,1130.500,58.000,205.050,84.933,1.378,24.698,-87.696,8.141,53.113,1.000,1.749,83.739
64.120,1130.500,58.000,205.050,84.933,1.378,24.698,-76.611,8.622,52.710,0.992,1.769,80.961
64.170,1128.500,61.000,205.050,89.008,3.219,24.681,-72.327,8.611,51.780,0.902,1.749,79.109
64.220,1132.500,61.000,217.050,89.008,3.219,24.683,-80.124,8.596,51.019,0.930,1.749,78.440
64.270,1140.500,60.000,212.050,91.580,4.835,24.681,-89.230,7.731,50.726,1.193,1.651,76.214
64.320,1140.500,60.000,212.050,95.236,4.684,24.681,-88.584,7.083,50.426,1.336,2.734,68.856
64.370,1168.500,42.000,168.050,95.236,4.684,24.950,-88.792,6.923,50.367,1.669,4.015,66.650
64.420,1168.500,42.000,168.050,95.236,4.684,25.230,-88.218,6.947,50.675,1.984,3.995,64.178
64.470,1156.500,42.000,151.050,99.189,3.738,24.961,-88.270,6.250,50.799,1.980,3.995,61.863
64.520,1153.500,40.000,151.050,99.189,3.738,24.961,-88.636,5.545,50.806,1.808,3.956,59.676
64.570,1146.000,42.000,148.050,100.774,3.696,25.234,-87.748,5.110,51.019,1.595,3.975,57.588
64.620,1146.000,42.000,148.050,100.774,3.696,25.237,-79.497,4.650,51.626,1.263,3.936,55.756
64.670,1135.000,44.000,158.050,100.312,3.278,25.227,-75.105,4.117,52.666,1.045,3.956,53.895
64.720,1135.000,44.000,158.050,100.312,3.278,25.238,-73.109,3.752,53.881,0.893,3.956,52.299
64.771,1125.000,52.000,172.050,100.488,2.468,25.240,-71.211,3.531,54.504,0.606,3.916,50.615
64.821,1125.000,52.000,172.050,100.488,2.468,25.240,-69.288,3.375,54.701,0.488,3.975,48.999
64.871,1122.500,59.000,203.050,102.790,1.838,24.961,-68.646,3.346,54.789,0.602,2.065,53.865
64.920,1122.000,61.000,203.050,102.790,1.838,24.961,-70.239,3.482,55.155,0.660,0.331,56.948
64.970,1122.000,65.000,223.050,105.704,1.754,24.960,-73.288,3.707,55.368,0.861,1.021,60.100
65.020,1122.000,65.000,223.050,105.704,1.754,24.960,-80.375,3.781,55.441,0.951,1.946,62.562
65.070,1128.000,68.000,231.050,108.378,2.360,25.045,-89.230,3.736,55.455,0.926,1.946,60.868
65.120,1139.000,62.000,231.050,110.200,2.802,25.041,-89.106,3.510,55.316,0.947,38.232,54.161
65.170,1142.500,61.000,215.050,110.200,2.802,25.039,-88.531,2.854,55.265,0.943,38.823,53.392
65.220,1144.500,60.000,215.050,110.200,2.802,25.039,-88.531,2.575,55.148,1.111,49.756,53.737
65.270,1142.000,59.000,207.050,111.852,2.581,26.441,-88.688,2.448,54.848,1.628,56.060,55.815
65.320,1144.500,57.000,207.050,111.852,2.581,26.441,-88.479,1.800,54.884,1.800,60.453,61.302
65.370,1144.500,57.000,207.050,113.415,1.370,27.430,-88.062,-0.048,55.280,1.968,67.465,69.427
65.421,1133.500,59.000,201.050,113.415,1.370,27.595,-88.531,-0.862,55.844,1.907,71.248,83.926
65.470,1133.500,59.000,201.050,113.078,-0.885,27.597,-80.082,-1.102,56.874,1.796,81.255,96.110
65.520,1133.500,60.000,207.050,110.888,-4.504,27.600,-71.948,-1.856,57.925,1.492,66.638,69.309
65.570,1133.500,60.000,207.050,110.888,-4.504,28.853,-65.159,-2.712,58.544,1.209,77.236,78.804
65.620,1140.000,59.000,206.050,110.888,-4.504,28.853,-60.326,-3.521,59.253,0.873,77.610,79.021
65.671,1168.000,39.000,153.050,108.298,-8.795,29.808,-57.136,-4.800,60.059,0.149,75.975,77.632
65.720,1156.000,42.000,153.050,108.298,-8.795,29.808,-55.154,-6.327,60.809,-0.691,75.444,78.410
65.770,1152.500,41.000,152.050,108.014,-11.473,29.818,-55.067,-7.512,61.355,-1.162,74.656,78.834
65.820,1152.500,41.000,152.050,108.014,-11.473,29.819,-57.332,-7.724,61.746,-1.303,78.320,78.479
65.870,1147.500,42.000,152.050,109.388,-10.070,30.061,-61.507,-6.905,62.120,-1.089,78.674,78.459
65.921,1144.000,42.000,156.050,109.388,-10.070,30.061,-68.906,-5.716,61.770,-0.832,75.621,79.129
65.971,1141.000,42.000,155.050,109.587,-6.562,30.634,-77.468,-3.826,60.858,-0.078,77.867,78.991
66.021,1141.000,42.000,155.050,109.587,-6.562,30.634,-89.210,-1.565,59.750,0.754,78.517,78.656
66.071,1140.000,43.000,157.050,107.199,-3.993,30.644,-89.106,-0.027,58.512,1.455,77.985,79.139
66.120,1139.000,43.000,157.050,107.199,-3.993,30.641,-88.218,1.074,57.559,2.165,77.886,79.267
66.170,1139.000,43.000,157.050,107.099,-1.888,30.964,-88.218,1.673,57.054,2.600,77.413,77.839
66.220,1137.500,43.000,159.050,107.099,-1.888,30.964,-88.166,2.116,57.192,2.706,78.398,78.617
66.270,1139.500,43.000,159.050,108.045,0.289,31.039,-88.323,2.276,57.827,2.575,79.206,78.450
66.320,1136.000,44.000,159.050,105.963,1.920,31.034,-88.479,2.235,58.626,2.062,79.206,78.794
66.370,1137.000,44.000,160.050,105.963,1.920,31.034,-81.640,2.206,59.090,1.394,79.600,79.100
66.420,1132.000,44.000,160.050,105.963,1.920,31.035,-76.694,2.149,59.611,0.664,80.506,78.410
66.470,1128.000,47.000,162.050,103.364,2.340,31.837,-75.649,2.083,60.206,0.059,79.896,79.700
66.520,1128.000,47.000,162.050,103.364,2.340,31.837,-76.130,2.075,60.825,-0.211,78.359,78.499
66.570,1127.500,50.000,172.050,103.745,1.840,32.787,-77.155,2.235,61.078,-0.022,79.364,78.706
66.620,1130.000,50.000,172.050,104.410,0.986,32.796,-78.430,2.481,60.719,0.235,79.442,79.060
66.670,1129.000,51.000,177.050,104.410,0.986,32.799,-79.497,2.596,60.190,0.762,78.241,78.912
66.721,1129.000,51.000,177.050,104.410,0.986,32.799,-82.580,2.706,59.391,1.205,78.891,79.632
66.770,1134.000,50.000,177.050,105.184,0.398,33.509,-88.114,2.723,58.870,1.615,78.753,80.360
66.820,1149.500,43.000,177.050,105.184,0.398,33.509,-88.531,2.645,58.471,1.833,79.127,78.873
66.870,1147.000,42.000,157.050,105.489,0.107,34.706,-88.531,2.399,58.373,1.816,79.364,79.277
66.920,1144.500,42.000,157.050,105.489,0.107,34.721,-88.584,1.956,58.455,1.611,80.073,79.779
66.970,1144.500,42.000,157.050,105.332,-0.455,34.730,-88.427,0.840,58.829,1.455,78.773,79.208
67.020,1140.500,43.000,158.050,105.332,-0.455,34.722,-87.853,-0.588,59.066,0.971,78.261,79.454
67.070,1139.500,43.000,158.050,104.163,-1.201,34.726,-82.423,-1.714,59.359,0.742,79.462,78.725
67.120,1139.500,43.000,158.050,104.163,-1.201,35.109,-79.434,-2.246,59.758,0.355,79.915,78.272
67.171,1137.500,43.000,158.050,103.070,-2.493,35.901,-78.974,-2.679,60.092,0.269,79.738,79.819
67.221,1137.500,43.000,158.050,103.070,-2.493,35.908,-79.601,-2.391,60.304,0.248,78.536,79.178
67.270,1135.500,44.000,158.050,102.881,-3.225,35.906,-80.354,-1.672,60.230,0.475,78.458,79.011
67.320,1136.500,43.000,158.050,102.881,-3.225,35.903,-83.154,-0.862,59.937,0.656,78.674,79.346
67.370,1136.500,43.000,158.050,103.274,-3.097,36.508,-84.302,0.089,59.701,0.930,79.777,78.991
67.420,1132.000,44.000,158.050,103.274,-3.097,36.508,-85.347,0.951,59.326,1.144,80.093,79.622
67.470,1127.000,48.000,164.050,103.763,-2.430,36.642,-88.009,0.926,59.131,1.353,78.182,78.686
67.520,1127.000,48.000,164.050,103.763,-2.430,36.642,-88.792,0.828,58.935,1.451,78.044,78.154
67.570,1124.500,50.000,164.050,103.454,-0.585,36.633,-88.636,0.688,58.943,1.336,79.856,79.789
67.621,1120.000,57.000,181.050,103.454,-0.585,36.632,-88.427,0.500,58.992,1.115,79.817,80.794
67.670,1125.000,56.000,199.050,102.280,0.534,35.996,-87.748,0.410,59.286,0.939,23.143,80.341
67.720,1125.000,56.000,199.050,102.280,0.534,35.996,-83.206,-0.455,59.391,0.889,5.000,84.330
67.770,1127.500,56.000,199.050,100.956,0.814,36.011,-80.710,-2.061,59.693,0.701,7.462,79.425
67.820,1132.000,55.000,194.050,100.956,0.814,36.003,-80.961,-1.877,59.872,0.449,48.023,80.892
67.870,1134.000,55.000,193.050,100.746,-0.786,36.003,-82.788,-1.856,60.011,0.590,54.957,80.597
67.920,1134.000,55.000,193.050,101.734,-1.827,35.984,-85.712,-1.329,59.913,0.754,54.504,82.123
67.970,1135.000,54.000,194.050,101.734,-1.827,33.403,-85.503,-0.883,59.660,0.779,53.144,80.370
68.022,1133.500,55.000,194.050,101.734,-1.827,33.403,-82.580,-0.322,59.351,0.766,54.110,80.961
68.070,1134.500,55.000,195.050,101.325,-0.303,31.561,-81.118,-0.755,59.074,0.684,53.794,80.705
68.121,1132.000,55.000,195.050,101.325,-0.303,31.561,-83.206,-1.218,58.976,0.586,53.656,80.498
68.170,1132.000,55.000,195.050,100.202,2.662,31.566,-85.869,-0.990,58.984,0.709,53.794,81.532
68.222,1137.000,54.000,195.050,98.510,5.343,31.564,-88.062,-0.292,59.057,0.770,53.479,83.118
68.270,1152.500,49.000,186.050,98.510,5.343,31.541,-88.584,0.509,59.163,0.926,30.668,79.671
68.321,1152.500,49.000,186.050,98.510,5.343,31.541,-87.748,1.808,59.212,1.099,5.906,85.196
68.370,1149.500,44.000,157.050,97.839,9.084,30.675,-85.608,2.825,59.229,1.341,5.807,84.852
68.420,1145.500,44.000,157.050,97.839,9.084,30.675,-80.375,3.506,59.310,1.751,5.748,83.138
68.470,1143.500,43.000,155.050,99.365,10.503,30.695,-77.175,3.641,59.359,1.952,23.773,75.386
68.520,1143.500,43.000,155.050,99.365,10.503,30.975,-74.315,3.568,59.041,1.767,64.274,81.079
68.571,1142.500,43.000,155.050,98.472,10.858,32.069,-74.393,3.084,58.772,1.558,65.338,79.897
68.620,1138.500,43.000,159.050,98.472,10.858,32.069,-77.280,2.715,59.123,1.443,67.682,79.612
68.670,1139.000,43.000,160.050,96.801,10.173,31.569,-84.094,2.485,59.440,1.234,81.471,77.445
68.720,1139.000,43.000,160.050,96.801,10.173,31.569,-89.001,2.284,59.522,1.074,100.067,77.238
68.770,1139.000,43.000,160.050,96.748,6.298,31.986,-88.218,2.456,59.563,0.906,108.774,77.465
68.820,1138.500,43.000,159.050,96.748,6.298,31.986,-88.375,2.358,59.245,0.840,115.492,77.228
68.870,1138.500,43.000,159.050,96.597,3.695,32.010,-88.636,1.878,58.943,0.861,119.432,77.218
68.920,1138.000,43.000,159.050,96.597,3.695,32.010,-88.375,1.459,58.756,0.852,119.195,77.484
68.970,1137.000,43.000,159.050,97.702,1.593,32.020,-88.479,1.082,58.740,0.877,118.978,76.568
69.020,1138.000,43.000,159.050,97.702,1.593,32.020,-87.853,0.930,58.813,0.902,119.294,77.691
69.071,1137.000,43.000,159.050,97.053,0.064,32.017,-84.616,0.840,58.968,0.893,117.875,76.943
69.120,1138.000,43.000,159.050,96.658,-1.549,32.034,-82.057,0.828,59.033,0.893,119.648,76.687
69.170,1136.500,43.000,158.050,96.658,-1.549,32.126,-81.431,0.803,59.310,0.893,119.471,77.721
69.220,1139.000,43.000,158.050,96.658,-1.549,32.126,-80.857,0.848,59.277,0.869,118.289,77.189
69.270,1136.500,43.000,156.050,96.690,-3.356,32.128,-80.354,0.893,59.326,0.893,117.540,76.401
69.320,1135.000,43.000,156.050,96.690,-3.356,32.128,-80.417,0.955,59.310,0.873,118.368,77.071
69.370,1135.000,43.000,157.050,96.961,-5.188,32.125,-80.584,1.066,59.277,0.893,118.388,76.637
69.420,1135.000,43.000,157.050,96.961,-5.188,32.126,-81.379,1.135,59.155,0.947,118.486,77.671
69.470,1133.500,44.000,157.050,97.064,-6.965,32.147,-83.415,1.127,59.025,0.951,118.250,77.829
69.520,1134.500,44.000,158.050,97.064,-6.965,32.147,-85.764,1.156,58.886,0.984,117.797,78.243
69.570,1131.500,44.000,161.050,97.243,-8.749,32.705,-88.636,1.361,58.838,0.955,73.631,81.040
69.620,1132.000,45.000,161.050,97.243,-8.749,32.705,-88.479,1.574,58.772,0.984,61.260,80.794
69.670,1133.000,45.000,162.050,96.906,-9.616,32.139,-88.427,1.513,58.561,1.049,59.645,79.592
69.720,1134.000,44.000,162.050,96.906,-9.616,32.139,-88.584,1.845,58.438,1.115,61.694,80.873
69.770,1134.000,44.000,162.050,97.271,-11.914,32.139,-88.740,2.514,58.552,1.156,60.925,80.193
69.822,1135.500,44.000,161.050,97.271,-11.914,32.139,-88.323,3.518,58.528,1.099,61.319,80.075
69.870,1136.500,44.000,162.050,97.779,-13.349,32.209,-86.286,3.883,58.520,1.000,62.029,80.725
69.920,1136.500,44.000,162.050,97.779,-13.349,31.828,-84.198,4.146,58.536,0.893,60.216,79.287
69.970,1137.000,44.000,162.050,97.192,-13.993,33.236,-84.198,4.121,58.658,0.783,60.315,80.232
70.020,1136.000,44.000,162.050,97.192,-13.993,33.510,-86.078,4.277,58.838,0.766,60.492,80.055
70.070,1135.500,44.000,161.050,97.437,-14.676,33.508,-86.600,4.564,59.000,0.951,60.669,80.282
70.120,1133.500,44.000,161.050,97.653,-16.446,33.513,-85.973,5.007,58.943,1.115,61.241,81.592
70.170,1135.000,45.000,160.050,97.653,-16.446,33.503,-85.086,5.069,58.813,1.349,60.118,80.449
70.221,1133.500,44.000,160.050,97.653,-16.446,33.721,-84.041,4.655,58.789,1.509,58.719,80.666
70.270,1132.500,45.000,161.050,97.881,-19.880,34.939,-83.728,3.900,58.764,1.607,58.443,80.794
70.320,1132.500,45.000,161.050,98.162,-23.960,35.166,-84.198,3.219,58.772,1.517,59.487,79.848
70.370,1132.000,45.000,161.050,98.162,-23.960,34.565,-85.869,2.329,58.870,1.345,57.833,82.123
70.420,1133.500,45.000,161.050,98.162,-23.960,34.521,-85.817,1.008,58.846,1.168,58.522,80.902
70.470,1132.500,44.000,163.050,98.351,-28.707,36.486,-85.869,-0.416,58.854,0.857,56.572,80.863
70.520,1132.500,44.000,163.050,98.351,-28.707,36.486,-85.242,-1.218,58.862,0.656,56.493,80.528
70.571,1134.500,45.000,163.050,99.109,-34.266,37.070,-84.668,-1.522,58.984,0.721,57.517,79.632
70.620,1135.500,44.000,163.050,99.109,-34.266,36.525,-83.676,-1.830,58.968,0.660,57.242,80.213
70.670,1136.000,44.000,163.050,99.887,-37.937,36.804,-81.222,-1.809,58.935,0.582,57.911,80.469
70.720,1137.000,44.000,163.050,99.887,-37.937,35.415,-79.915,-1.740,58.992,0.513,57.872,80.449
70.770,1136.500,44.000,162.050,99.690,-39.245,35.266,-79.497,-1.505,59.009,0.428,57.242,80.892
70.820,1137.500,44.000,162.050,99.690,-39.245,35.266,-79.706,-1.055,59.074,0.505,57.183,79.996
70.870,1136.000,44.000,161.050,99.505,-39.755,35.409,-80.271,-0.545,59.131,0.590,57.242,80.853
70.920,1135.500,44.000,161.050,99.505,-39.755,35.409,-82.110,0.059,59.139,0.893,53.026,84.724
70.971,1132.000,45.000,163.050,99.503,-41.095,35.959,-87.383,0.725,59.131,1.131,15.165,82.370
71.020,1133.500,45.000,163.050,99.503,-41.095,35.959,-88.270,0.594,58.952,1.263,12.269,84.389
71.070,1133.500,45.000,163.050,99.694,-44.104,36.513,-82.110,-0.862,58.732,1.234,2.794,83.345
71.120,1129.500,46.000,164.050,99.694,-44.104,37.613,-78.326,-1.016,58.699,1.213,2.695,84.320
71.170,1131.000,46.000,164.050,100.563,-43.531,37.332,-77.447,-0.279,58.756,1.021,18.572,83.670
71.220,1130.500,46.000,164.050,100.563,-43.531,37.332,-77.782,0.543,58.789,0.795,7.088,83.325
71.270,1133.000,46.000,164.050,100.282,-40.567,38.757,-79.350,1.353,58.976,0.738,5.985,84.428
71.321,1131.500,46.000,164.050,100.282,-40.567,38.427,-81.170,2.062,59.066,0.910,2.419,83.699
71.370,1134.000,46.000,165.050,99.679,-40.296,38.434,-83.363,2.637,59.017,1.275,4.369,83.000
71.420,1134.500,45.000,165.050,99.679,-40.296,37.886,-84.459,2.936,58.829,1.615,2.636,83.955
71.470,1137.000,45.000,164.050,100.042,-42.130,37.846,-85.869,2.948,58.748,1.853,2.872,79.267
71.520,1138.500,45.000,164.050,100.042,-42.130,37.606,-86.443,2.993,58.438,1.870,43.275,79.632
71.570,1140.500,44.000,162.050,101.267,-45.176,37.600,-88.062,2.624,58.373,1.759,59.349,80.941
71.620,1140.000,44.000,162.050,101.267,-45.176,37.646,-88.792,1.763,58.381,1.373,59.763,80.685
71.670,1140.500,44.000,160.050,102.074,-47.133,37.962,-87.905,0.552,58.414,0.885,59.468,80.666
71.721,1139.500,44.000,160.050,102.074,-47.133,37.962,-85.399,-0.468,58.552,0.453,60.157,80.321
71.770,1140.000,43.000,161.050,101.131,-44.876,38.107,-81.849,-0.926,58.675,0.158,61.497,80.301
71.820,1140.000,43.000,161.050,101.131,-44.876,38.107,-81.849,-0.918,59.082,0.132,59.724,81.079
71.870,1138.500,44.000,161.050,99.632,-42.593,38.150,-83.519,-0.339,59.155,0.406,60.216,80.695
71.920,1138.500,44.000,161.050,99.632,-42.593,38.157,-84.198,0.389,59.204,0.820,59.743,80.784
71.970,1136.500,44.000,161.050,99.483,-40.327,38.153,-84.511,1.037,59.123,1.226,60.886,81.936
72.020,1134.500,44.000,161.050,99.483,-40.327,38.153,-84.302,1.410,58.846,1.492,60.177,80.488
72.071,1134.500,44.000,161.050,99.236,-37.341,38.157,-83.937,1.611,58.740,1.542,58.246,78.863
72.120,1135.500,44.000,160.050,99.236,-37.341,38.157,-84.511,1.377,58.561,1.414,58.207,78.371
72.170,1137.000,43.000,157.050,99.508,-34.060,38.126,-86.495,0.865,58.585,1.070,59.684,76.854
72.220,1139.000,43.000,157.050,99.508,-34.060,37.390,-87.070,-0.142,58.577,0.647,88.110,76.982
72.270,1137.500,43.000,156.050,98.685,-31.668,35.623,-88.218,-1.269,58.569,0.351,105.130,76.086
72.320,1138.000,43.000,156.050,98.685,-31.668,35.623,-88.270,-1.539,58.561,0.179,109.365,76.322
72.370,1138.000,43.000,157.050,98.135,-31.393,34.903,-88.427,-0.948,58.748,0.615,111.729,76.637
72.420,1138.000,43.000,157.050,98.135,-31.393,34.903,-88.479,-1.200,58.772,1.148,112.241,76.647
72.470,1136.500,43.000,157.050,98.429,-33.480,35.355,-86.339,-2.023,58.748,1.320,108.912,76.470
72.521,1136.000,43.000,157.050,98.429,-33.480,35.355,-83.049,-3.430,58.723,0.976,111.394,75.967
72.570,1137.000,43.000,157.050,99.117,-33.787,33.868,-82.475,-4.870,58.895,0.316,111.611,75.997
72.620,1137.000,43.000,157.050,99.117,-33.787,32.876,-84.511,-5.795,59.114,-0.236,110.922,75.101
72.670,1136.500,43.000,157.050,98.390,-30.207,30.599,-86.025,-5.964,59.196,-0.532,108.893,72.520
72.720,1136.500,43.000,157.050,98.390,-30.207,30.599,-86.025,-5.279,59.220,-0.416,107.730,69.487
72.771,1137.500,43.000,157.050,95.890,-27.642,29.637,-83.572,-4.049,59.009,0.068,101.052,64.532
72.820,1148.500,38.000,156.050,95.890,-27.642,29.637,-80.626,-2.409,58.569,0.672,93.468,57.697
72.870,1151.000,34.000,133.050,92.240,-25.321,29.581,-81.327,-0.866,58.308,1.123,85.254,53.097
72.920,1151.000,34.000,133.050,92.240,-25.321,28.713,-85.033,0.526,58.479,1.336,78.694,50.654
72.970,1149.000,31.000,123.050,91.376,-22.159,27.719,-85.973,1.316,58.732,1.304,76.724,47.670
73.020,1149.000,31.000,123.050,91.376,-22.159,26.806,-85.138,1.259,58.772,1.254,73.336,45.710
73.071,1147.500,32.000,123.050,91.983,-18.741,25.921,-83.363,0.791,58.707,0.976,71.819,44.232
73.121,1145.500,31.000,120.050,91.983,-18.741,25.391,-80.772,0.243,58.544,0.578,60.945,48.615
73.172,1129.500,34.000,126.050,92.025,-16.235,25.491,-80.208,0.111,58.569,0.530,50.465,51.905
73.221,1129.500,34.000,126.050,92.025,-16.235,25.491,-79.999,0.192,58.626,0.432,54.208,53.520
73.270,1121.500,44.000,155.050,90.895,-15.274,23.404,-80.291,0.606,58.601,0.488,54.720,56.091
73.320,1124.500,43.000,155.050,90.895,-15.274,23.404,-81.170,1.295,58.552,0.754,55.488,56.781
73.371,1124.500,43.000,155.050,89.497,-16.650,21.143,-80.668,2.009,58.438,1.000,56.789,56.170
73.420,1130.000,42.000,155.050,89.497,-16.650,21.143,-79.936,2.805,58.422,1.103,56.119,57.027
73.470,1132.500,42.000,155.050,88.860,-16.842,19.258,-78.890,4.125,58.398,1.172,57.005,58.120
73.520,1134.000,42.000,155.050,88.860,-16.842,19.258,-75.272,6.738,58.243,0.893,56.769,57.972
73.571,1131.000,43.000,156.050,88.382,-15.429,14.753,-72.618,7.882,58.096,0.505,57.852,58.898
73.620,1131.000,43.000,156.050,88.382,-15.429,12.542,-69.904,7.591,57.958,0.295,59.192,61.715
73.671,1117.000,54.000,183.050,87.680,-11.681,12.769,-66.745,7.345,58.015,0.051,62.363,65.832
73.720,1111.500,63.000,183.050,85.523,-8.678,11.361,-63.463,7.370,58.096,0.222,63.348,69.467
73.770,1111.500,63.000,183.050,85.523,-8.678,9.798,-61.337,8.104,58.161,0.762,65.180,69.555
73.820,1122.500,61.000,216.050,85.523,-8.678,9.798,-59.694,9.361,58.218,1.246,65.279,69.713
73.870,1122.500,61.000,216.050,82.030,-7.340,7.152,-58.767,10.141,58.072,1.607,65.259,68.472
73.920,1124.500,61.000,204.050,82.030,-7.340,5.052,-59.175,10.141,57.974,1.599,64.747,68.915
73.971,1128.000,59.000,203.050,81.186,-5.509,7.212,-60.470,9.602,58.031,1.439,65.968,68.403
74.021,1128.000,59.000,203.050,81.186,-5.509,7.547,-62.424,8.791,58.104,1.332,64.117,69.250
74.070,1133.000,58.000,202.050,81.771,-5.478,7.780,-63.828,8.289,57.673,1.353,65.042,69.644
74.121,1140.500,56.000,202.050,81.771,-5.478,8.544,-64.667,7.993,56.899,1.472,66.362,67.517
74.170,1143.500,54.000,198.050,81.753,-7.835,9.167,-64.995,7.645,56.034,1.615,65.023,68.236
74.220,1146.500,52.000,198.050,81.753,-7.835,9.382,-65.596,7.013,55.258,1.607,65.042,67.861
74.270,1147.000,50.000,185.050,82.185,-10.293,8.628,-66.335,6.008,54.679,1.619,65.633,67.329
74.320,1147.000,50.000,185.050,82.185,-10.293,8.628,-67.360,4.761,54.533,1.722,65.633,66.453
74.370,1150.000,45.000,167.050,81.819,-12.023,10.097,-67.989,3.752,54.335,1.583,63.171,65.803
74.420,1148.500,44.000,167.050,81.819,-12.023,10.097,-67.415,3.322,54.174,1.558,64.176,65.291
74.470,1148.500,44.000,167.050,80.332,-13.270,7.814,-66.102,3.371,53.881,1.398,65.299,65.350
74.521,1144.500,43.000,163.050,80.332,-13.270,7.814,-64.489,3.756,53.515,1.242,64.333,64.335
74.570,1141.500,44.000,160.050,78.338,-13.555,4.441,-62.765,4.294,53.369,1.144,63.447,64.256
74.620,1141.500,44.000,160.050,78.338,-13.555,4.441,-61.669,3.957,53.200,0.865,63.270,64.788
74.670,1140.000,44.000,161.050,76.602,-11.581,1.822,-60.733,3.523,53.061,0.573,64.195,65.232
74.720,1139.000,44.000,161.050,76.602,-11.581,1.822,-60.086,3.379,52.981,0.265,65.141,65.192
74.770,1134.000,45.000,162.050,75.201,-8.690,2.119,-59.558,3.539,52.878,0.269,63.585,66.019
74.820,1131.000,46.000,162.050,75.201,-8.690,2.119,-59.095,4.183,52.593,0.693,64.412,65.222
74.870,1123.000,51.000,166.050,73.796,-8.129,1.762,-59.127,4.966,52.271,1.222,65.693,66.384
74.920,1118.500,57.000,166.050,72.555,-9.167,356.972,-59.375,5.676,51.912,1.624,65.574,67.477
74.970,1121.500,57.000,195.050,72.555,-9.167,354.178,-59.878,5.705,51.436,1.882,66.717,68.462
75.022,1124.500,57.000,195.050,72.555,-9.167,354.178,-60.725,5.208,50.923,1.816,67.682,70.895
75.071,1128.500,56.000,194.050,71.406,-10.390,354.396,-62.027,4.154,50.389,1.656,68.175,71.348
75.121,1128.500,56.000,194.050,70.982,-11.999,353.327,-62.960,3.043,49.789,1.431,69.494,71.772
75.170,1131.500,56.000,197.050,70.982,-11.999,353.327,-63.439,2.563,49.247,1.263,67.978,73.210
75.220,1133.000,56.000,197.050,70.982,-11.999,351.645,-63.211,2.067,48.721,1.140,69.987,72.491
75.270,1134.500,55.000,196.050,70.291,-13.980,350.228,-62.262,1.521,48.324,1.300,68.510,72.668
75.321,1134.500,55.000,196.050,70.291,-13.980,346.777,-60.869,1.312,48.117,1.468,69.593,72.343
75.370,1134.500,56.000,196.050,69.820,-16.189,352.668,-59.487,1.156,48.040,1.706,70.361,73.357
75.420,1132.500,56.000,196.050,69.423,-17.236,355.085,-57.795,0.881,48.064,1.701,70.873,74.529
75.470,1120.500,63.000,201.050,69.423,-17.236,355.351,-56.565,0.539,48.241,1.591,50.091,90.328
75.520,1121.000,69.000,201.050,69.423,-17.236,355.351,-55.646,0.136,48.348,1.287,14.869,99.114
75.570,1132.500,61.000,215.050,69.566,-17.240,22.832,-55.082,-0.069,48.496,0.971,14.593,83.256
75.620,1132.500,61.000,215.050,69.566,-17.240,22.832,-54.452,-0.322,48.520,0.807,11.382,79.750
75.670,1139.500,60.000,209.050,69.930,-16.815,22.829,-54.033,-0.819,48.312,0.423,3.641,81.395
75.720,1142.000,59.000,209.050,69.930,-16.815,22.829,-53.700,-1.106,48.099,0.153,22.749,75.032
75.770,1142.000,59.000,209.050,71.532,-16.483,22.827,-53.483,-0.866,47.785,0.119,59.546,79.041
75.820,1140.500,57.000,200.050,71.532,-16.483,22.827,-53.447,-0.189,47.430,0.171,59.684,79.041
75.870,1138.500,57.000,198.050,73.192,-14.655,23.924,-53.331,0.505,47.222,0.754,58.837,79.247
75.921,1139.000,56.000,198.050,73.873,-16.340,23.924,-53.230,1.242,46.861,1.336,60.098,79.957
75.970,1136.000,57.000,198.050,73.873,-16.340,23.924,-53.309,1.595,46.428,1.562,60.039,79.878
76.020,1134.500,57.000,198.050,73.873,-16.340,23.941,-53.866,1.660,46.173,1.697,59.389,79.858
76.070,1129.500,58.000,202.050,74.437,-18.096,23.945,-54.445,1.439,45.995,1.591,56.139,88.063
76.120,1129.500,59.000,202.050,74.437,-18.096,23.945,-55.038,1.066,45.699,1.451,16.307,80.016
76.170,1133.000,59.000,207.050,74.542,-21.036,23.926,-55.516,0.705,45.468,1.431,23.793,82.251
76.220,1140.500,57.000,207.050,74.542,-21.036,23.926,-55.234,0.196,45.237,1.250,37.523,78.814
76.271,1146.500,54.000,199.050,73.864,-23.344,22.982,-54.843,-0.236,45.213,1.012,60.551,78.026
76.321,1146.500,54.000,199.050,73.864,-23.344,21.616,-54.959,-0.249,45.480,0.918,72.587,78.440
76.371,1145.000,52.000,188.050,73.156,-23.055,19.092,-55.255,0.076,45.693,0.828,84.860,76.421
76.420,1145.500,51.000,188.050,73.156,-23.055,19.092,-55.610,0.355,45.770,1.025,111.513,76.145
76.470,1142.500,51.000,184.050,73.547,-24.123,18.683,-55.349,0.606,45.699,1.263,116.969,77.149
76.520,1141.000,51.000,184.050,73.547,-24.123,18.054,-54.590,0.734,45.338,1.369,114.783,76.086
76.572,1141.000,51.000,184.050,74.862,-24.279,16.872,-53.454,0.836,45.136,1.492,112.596,76.568
76.620,1140.000,51.000,184.050,74.862,-24.279,16.872,-52.275,0.684,44.881,1.591,99.417,83.512
76.672,1145.000,46.000,165.050,76.935,-22.054,13.867,-50.999,0.738,45.053,1.689,71.839,81.513
76.720,1142.500,47.000,165.050,76.935,-22.054,13.867,-49.534,1.152,45.142,1.431,24.699,80.892
76.772,1139.500,47.000,166.050,77.060,-18.687,13.870,-48.402,1.669,45.338,1.501,10.220,86.428
76.821,1137.000,47.000,166.050,77.060,-18.687,13.885,-47.867,2.374,45.841,1.583,3.168,84.418
76.870,1134.500,47.000,168.050,76.519,-18.341,13.902,-47.843,2.514,46.138,1.542,3.128,82.902
76.920,1133.500,48.000,168.050,76.519,-18.341,13.902,-47.756,2.358,46.357,1.164,21.744,84.369
76.970,1140.500,46.000,169.050,76.241,-18.940,13.898,-47.812,2.116,46.475,0.857,22.571,83.650
77.020,1142.000,45.000,169.050,76.241,-18.940,13.902,-47.929,1.779,46.410,0.783,6.714,84.379
77.070,1145.000,43.000,162.050,76.370,-18.483,13.905,-47.873,1.402,46.256,0.799,2.183,83.473
77.120,1145.000,43.000,162.050,76.370,-18.483,13.902,-47.849,1.218,46.037,0.848,2.065,82.793
77.170,1144.000,43.000,162.050,76.388,-18.106,13.899,-48.126,1.353,45.788,1.094,1.749,81.109
77.220,1140.500,43.000,158.050,76.388,-18.106,13.842,-48.525,1.464,45.652,1.373,37.168,80.124
77.270,1140.500,43.000,158.050,76.225,-18.759,13.904,-48.987,1.648,45.468,1.599,60.906,79.651
77.321,1138.000,43.000,157.050,76.225,-18.759,13.903,-49.461,1.681,45.344,1.796,63.388,80.932
77.370,1137.500,43.000,160.050,76.074,-20.377,13.902,-50.088,1.156,45.273,1.648,60.334,80.922
77.420,1137.500,43.000,160.050,76.074,-20.377,13.905,-50.353,0.836,45.344,1.468,60.847,80.163
77.470,1135.500,44.000,160.050,76.350,-17.601,13.906,-50.383,0.578,45.379,1.369,61.359,80.971
77.521,1137.000,44.000,161.050,76.350,-17.601,13.905,-50.150,0.606,45.415,1.275,59.783,80.518
77.570,1136.000,44.000,161.050,76.588,-14.531,13.907,-49.651,0.955,45.545,1.246,61.122,80.390
77.620,1136.000,44.000,161.050,76.588,-14.531,13.907,-48.987,1.443,45.581,1.226,61.398,81.887
77.670,1136.000,45.000,160.050,76.545,-12.588,13.904,-48.476,1.845,45.693,1.234,59.783,80.833
77.720,1134.500,44.000,160.050,76.545,-12.588,13.905,-48.076,2.112,45.752,1.218,59.665,81.109
77.771,1133.500,45.000,161.050,76.540,-10.606,13.904,-47.787,2.149,45.883,1.230,59.546,80.400
77.820,1135.000,44.000,161.050,76.540,-10.606,13.904,-47.806,2.144,45.918,1.115,60.157,80.587
77.870,1135.000,44.000,161.050,76.569,-8.499,13.905,-47.898,2.013,45.895,1.074,59.566,80.902
77.921,1137.000,44.000,160.050,76.569,-8.499,13.905,-48.138,1.890,45.824,1.103,59.231,80.262
77.970,1134.500,44.000,161.050,76.669,-6.438,13.906,-48.267,2.062,45.747,1.185,58.207,79.888
78.020,1136.500,44.000,161.050,76.669,-6.438,13.905,-48.218,2.686,45.658,1.312,59.015,80.469
78.072,1131.500,45.000,161.050,76.938,-3.995,13.903,-47.861,3.707,45.385,1.546,57.439,78.597
78.120,1123.000,49.000,161.050,76.938,-3.995,13.903,-46.821,4.938,45.071,1.886,54.720,85.147
78.170,1123.000,49.000,161.050,76.443,0.001,13.908,-44.947,6.049,44.727,2.013,13.707,79.100
78.220,1122.500,56.000,189.050,76.443,0.001,13.908,-42.999,6.988,44.680,1.755,11.225,81.365
78.270,1122.500,56.000,189.050,74.551,5.055,13.910,-41.568,7.862,44.935,1.706,11.225,80.636
78.320,1125.000,59.000,198.050,74.551,5.055,13.909,-40.993,8.092,45.450,1.878,11.126,80.272
78.370,1125.000,59.000,198.050,72.087,7.559,13.907,-41.229,8.096,45.889,1.874,11.520,81.503
78.420,1128.000,58.000,204.050,72.087,7.559,13.907,-41.996,7.177,46.031,1.710,11.185,80.351
78.470,1128.000,58.000,203.050,72.148,6.512,13.907,-43.452,5.491,45.912,1.517,2.597,82.123
78.520,1128.000,60.000,203.050,72.148,6.512,13.907,-45.074,4.064,45.675,1.176,2.143,80.685
78.570,1127.000,60.000,205.050,74.135,4.326,13.906,-46.797,2.821,45.249,1.033,1.789,80.863
78.620,1127.000,60.000,205.050,76.110,0.757,13.906,-47.787,1.115,44.496,1.197,1.749,81.099
78.670,1130.000,60.000,208.050,76.110,0.757,13.906,-48.193,-0.142,43.755,1.476,1.769,80.882
78.720,1130.000,60.000,208.050,76.110,0.757,13.907,-48.212,-1.235,43.074,1.800,1.552,83.296
78.770,1133.500,60.000,207.050,78.041,-3.232,13.907,-48.199,-1.847,42.564,1.980,1.612,82.054
78.820,1133.500,60.000,207.050,78.041,-3.232,13.907,-47.990,-2.216,42.434,2.009,1.730,82.921
78.870,1136.500,59.000,206.050,79.898,-4.336,13.907,-47.455,-2.374,42.369,1.833,1.749,82.114
78.920,1137.000,59.000,206.050,79.898,-4.336,13.907,-46.511,-2.293,42.499,1.738,1.769,81.454
78.970,1135.500,59.000,205.050,80.597,-3.331,13.907,-45.145,-2.036,42.796,1.488,1.789,83.079
79.020,1134.500,59.000,205.050,80.597,-3.331,13.907,-43.490,-1.505,42.973,1.308,1.730,82.114
79.071,1135.000,59.000,207.050,80.452,-1.882,13.906,-41.964,-1.106,43.127,1.008,1.533,82.133
79.120,1135.000,59.000,207.050,80.452,-1.882,13.906,-40.827,-0.798,43.139,0.709,1.533,82.577
79.170,1141.500,58.000,207.050,79.958,-0.587,13.907,-40.149,-0.601,43.139,0.415,1.769,82.074
79.220,1150.000,52.000,207.050,79.958,-0.587,13.907,-39.802,-0.412,43.080,0.312,1.749,83.108
79.270,1158.500,45.000,180.050,79.640,0.355,13.906,-39.919,0.179,42.955,0.299,1.552,82.793
79.320,1154.500,45.000,180.050,79.640,0.355,13.906,-39.924,1.017,42.594,0.548,1.552,82.941
79.370,1151.500,44.000,166.050,79.645,1.238,13.907,-40.063,1.964,42.126,0.861,1.651,83.414
79.420,1146.500,45.000,166.050,79.645,1.238,13.907,-40.565,3.014,41.713,1.185,1.789,84.152
79.470,1143.500,45.000,166.050,81.313,2.635,13.906,-41.472,3.732,41.268,1.427,1.749,83.552
79.520,1135.500,46.000,166.050,81.313,2.635,13.906,-42.494,3.994,40.775,1.775,1.789,83.325
79.570,1126.500,49.000,169.050,83.510,4.697,13.905,-43.369,4.187,40.405,1.935,1.749,84.753
79.620,1120.000,56.000,169.050,83.510,4.697,13.905,-44.123,4.326,40.164,1.972,1.730,83.305
79.670,1120.500,58.000,195.050,84.676,5.346,13.905,-44.506,4.277,39.982,2.021,1.769,83.926
79.720,1127.000,56.000,195.050,84.676,5.346,23.230,-45.362,3.666,39.890,1.989,1.671,84.310
79.770,1128.000,55.000,193.050,83.432,4.609,23.228,-47.996,3.748,39.692,2.087,1.749,84.212
79.820,1130.000,56.000,193.050,82.545,1.645,23.226,-50.833,3.354,39.408,2.255,1.749,84.743
79.870,1129.000,58.000,204.050,82.545,1.645,23.225,-50.919,1.058,38.797,1.722,1.730,83.099
79.920,1129.000,58.000,204.050,82.545,1.645,23.225,-48.938,-1.792,38.127,0.984,1.769,84.359
79.970,1157.000,45.000,175.050,82.972,0.289,23.224,-48.058,-2.703,38.282,0.840,1.769,83.955
80.020,1158.000,41.000,175.050,82.972,0.289,23.224,-47.233,-3.141,38.802,1.033,1.749,83.847
80.070,1151.500,42.000,159.050,82.333,-1.682,23.224,-45.732,-2.992,39.360,1.099,1.769,84.546
80.120,1148.500,42.000,159.050,82.333,-1.682,23.224,-44.512,-2.430,39.767,0.820,1.749,82.133
80.170,1136.000,46.000,163.050,82.164,-1.090,23.224,-43.522,-1.753,40.142,0.539,1.671,80.331
80.220,1125.000,50.000,163.050,82.164,-1.090,23.224,-43.407,-1.342,40.351,0.483,1.533,78.016
80.271,1115.500,60.000,195.050,83.143,-0.585,23.224,-43.708,-0.858,40.255,0.496,1.552,76.618
80.320,1122.500,59.000,195.050,83.143,-0.585,23.224,-44.825,-0.241,40.480,0.419,1.375,71.289
80.371,1130.500,55.000,192.050,85.192,-0.133,23.224,-47.307,0.042,40.652,0.402,4.507,66.719
80.420,1128.000,57.000,192.050,85.192,-0.133,23.223,-49.418,-0.189,40.620,0.256,5.354,64.187
80.470,1122.000,62.000,201.050,88.604,0.321,23.223,-49.897,-0.211,39.987,0.123,5.354,68.048
